[
  {
    "name": "ADMIRALTY PRIMARY SCHOOL",
    "school_type": "primary",
    "address": "11 WOODLANDS CIRCLE SINGAPORE 738907",
    "coordinates": {
      "latitude": 1.442634790331114,
      "longitude": 103.800040119743
    },
    "postal": "738907"
  },
  {
    "name": "AHMAD IBRAHIM PRIMARY SCHOOL",
    "school_type": "primary",
    "address": "10 YISHUN STREET 11 SINGAPORE 768643",
    "coordinates": {
      "latitude": 1.433152715435181,
      "longitude": 103.8329424010853
    },
    "postal": "768643"
  },
  {
    "name": "AI TONG SCHOOL",
    "school_type": "primary",
    "address": "100 BRIGHT HILL DRIVE AI TONG SCHOOL SINGAPORE 579646",
    "coordinates": {
      "latitude": 1.360583433890406,
      "longitude": 103.8330203339857
    },
    "postal": "579646"
  },
  {
    "name": "ALEXANDRA PRIMARY SCHOOL",
    "school_type": "primary",
    "address": "2A PRINCE CHARLES CRESCENT SINGAPORE 159016",
    "coordinates": {
      "latitude": 1.291334391613348,
      "longitude": 103.8244246805311
    },
    "postal": "159016"
  },
  {
    "name": "ANCHOR GREEN PRIMARY SCHOOL",
    "school_type": "primary",
    "address": "31 ANCHORVALE DRIVE ANCHOR GREEN PRIMARY SCHOOL SINGAPORE 544969",
    "coordinates": {
      "latitude": 1.390369986546132,
      "longitude": 103.8871653759329
    },
    "postal": "544969"
  },
  {
    "name": "ANDERSON PRIMARY SCHOOL",
    "school_type": "primary",
    "address": "19 ANG MO KIO AVENUE 9 SINGAPORE 569785",
    "coordinates": {
      "latitude": 1.384264294367363,
      "longitude": 103.8413920811184
    },
    "postal": "569785"
  },
  {
    "name": "ANG MO KIO PRIMARY SCHOOL",
    "school_type": "primary",
    "address": "20 ANG MO KIO AVENUE 3 SINGAPORE 569920",
    "coordinates": {
      "latitude": 1.369321765846087,
      "longitude": 103.839630858752
    },
    "postal": "569920"
  },
  {
    "name": "ANGLO-CHINESE SCHOOL (JUNIOR)",
    "school_type": "primary",
    "address": "16 WINSTEDT ROAD ANGLO-CHINESE SCHOOL (JUNIOR) SINGAPORE 227988",
    "coordinates": {
      "latitude": 1.309350412749673,
      "longitude": 103.840950265464
    },
    "postal": "227988"
  },
  {
    "name": "ANGLO-CHINESE SCHOOL (PRIMARY)",
    "school_type": "primary",
    "address": "50 BARKER ROAD ANGLO-CHINESE SCHOOL (PRIMARY) SINGAPORE 309918",
    "coordinates": {
      "latitude": 1.31837054523522,
      "longitude": 103.8356097323541
    },
    "postal": "309918"
  },
  {
    "name": "ANGSANA PRIMARY SCHOOL",
    "school_type": "primary",
    "address": "51 TAMPINES STREET 61 ANGSANA PRIMARY SCHOOL SINGAPORE 528565",
    "coordinates": {
      "latitude": 1.363605905883133,
      "longitude": 103.9389409003993
    },
    "postal": "528565"
  },
  {
    "name": "BEACON PRIMARY SCHOOL",
    "school_type": "primary",
    "address": "36 BUKIT PANJANG RING ROAD SINGAPORE 679944",
    "coordinates": {
      "latitude": 1.383949362118238,
      "longitude": 103.7736320229752
    },
    "postal": "679944"
  },
  {
    "name": "BEDOK GREEN PRIMARY SCHOOL",
    "school_type": "primary",
    "address": "1 BEDOK SOUTH AVENUE 2 SINGAPORE 469317",
    "coordinates": {
      "latitude": 1.323445932879926,
      "longitude": 103.937878976352
    },
    "postal": "469317"
  },
  {
    "name": "BENDEMEER PRIMARY SCHOOL",
    "school_type": "primary",
    "address": "91 BENDEMEER ROAD SINGAPORE 339948",
    "coordinates": {
      "latitude": 1.321812507804748,
      "longitude": 103.8654041676288
    },
    "postal": "339948"
  },
  {
    "name": "BLANGAH RISE PRIMARY SCHOOL",
    "school_type": "primary",
    "address": "91 TELOK BLANGAH HEIGHTS BLANGAH RISE PRIMARY SCHOOL SINGAPORE 109100",
    "coordinates": {
      "latitude": 1.276120479240372,
      "longitude": 103.808628535239
    },
    "postal": "109100"
  },
  {
    "name": "BOON LAY GARDEN PRIMARY SCHOOL",
    "school_type": "primary",
    "address": "20 BOON LAY DRIVE SINGAPORE 649930",
    "coordinates": {
      "latitude": 1.343178537933179,
      "longitude": 103.7132808894514
    },
    "postal": "649930"
  },
  {
    "name": "BUKIT PANJANG PRIMARY SCHOOL",
    "school_type": "primary",
    "address": "109 CASHEW ROAD SINGAPORE 679676",
    "coordinates": {
      "latitude": 1.373621793024374,
      "longitude": 103.7693749040251
    },
    "postal": "679676"
  },
  {
    "name": "BUKIT TIMAH PRIMARY SCHOOL",
    "school_type": "primary",
    "address": "111 LORONG KISMIS SINGAPORE 598112",
    "coordinates": {
      "latitude": 1.33774986225881,
      "longitude": 103.7668553447784
    },
    "postal": "NIL"
  },
  {
    "name": "BUKIT VIEW PRIMARY SCHOOL",
    "school_type": "primary",
    "address": "101 BUKIT BATOK WEST AVENUE 8 SINGAPORE 659778",
    "coordinates": {
      "latitude": 1.345860547886968,
      "longitude": 103.75366641455
    },
    "postal": "659634"
  },
  {
    "name": "CANBERRA PRIMARY SCHOOL",
    "school_type": "primary",
    "address": "21 ADMIRALTY DRIVE SINGAPORE 757714",
    "coordinates": {
      "latitude": 1.451250243715436,
      "longitude": 103.8158588589283
    },
    "postal": "757714"
  },
  {
    "name": "CANOSSA CATHOLIC PRIMARY SCHOOL",
    "school_type": "primary",
    "address": "1 SALLIM ROAD SINGAPORE 387621",
    "coordinates": {
      "latitude": 1.326644245448396,
      "longitude": 103.8822279648518
    },
    "postal": "387621"
  },
  {
    "name": "CANTONMENT PRIMARY SCHOOL",
    "school_type": "primary",
    "address": "1 SALLIM ROAD SINGAPORE 387621",
    "coordinates": {
      "latitude": 1.275472526232034,
      "longitude": 103.8399626317482
    },
    "postal": "088256"
  },
  {
    "name": "CASUARINA PRIMARY SCHOOL",
    "school_type": "primary",
    "address": "30 PASIR RIS STREET 41 CASUARINA PRIMARY SCHOOL SINGAPORE 518935",
    "coordinates": {
      "latitude": 1.372460639280005,
      "longitude": 103.9570202861143
    },
    "postal": "518935"
  },
  {
    "name": "CATHOLIC HIGH SCHOOL",
    "school_type": "primary",
    "address": "9 BISHAN STREET 22 SINGAPORE 579767",
    "coordinates": {
      "latitude": 1.354525170657562,
      "longitude": 103.8449008048039
    },
    "postal": "579767"
  },
  {
    "name": "CEDAR PRIMARY SCHOOL",
    "school_type": "primary",
    "address": "15 CEDAR AVENUE SINGAPORE 349700",
    "coordinates": {
      "latitude": 1.335588501431211,
      "longitude": 103.8756210494394
    },
    "postal": "349700"
  },
  {
    "name": "CHANGKAT PRIMARY SCHOOL",
    "school_type": "primary",
    "address": "11 SIMEI STREET 3 CHANGKAT PRIMARY SCHOOL SINGAPORE 529896",
    "coordinates": {
      "latitude": 1.340231639516331,
      "longitude": 103.9520801140343
    },
    "postal": "529896"
  },
  {
    "name": "CHIJ (KATONG) PRIMARY",
    "school_type": "primary",
    "address": "17 MARTIA ROAD CHIJ (KATONG) PRIMARY SINGAPORE 424821",
    "coordinates": {
      "latitude": 1.306485352770875,
      "longitude": 103.9111056204962
    },
    "postal": "424821"
  },
  {
    "name": "CHIJ (KELLOCK)",
    "school_type": "primary",
    "address": "1 BUKIT TERESA ROAD CHIJ (KELLOCK) SINGAPORE 099757",
    "coordinates": {
      "latitude": 1.275022722964019,
      "longitude": 103.8281575648959
    },
    "postal": "099757"
  },
  {
    "name": "CHIJ OUR LADY OF GOOD COUNSEL",
    "school_type": "primary",
    "address": "2C BURGHLEY DRIVE CHIJ OUR LADY OF GOOD COUNSEL SINGAPORE 558979",
    "coordinates": {
      "latitude": 1.357429522696155,
      "longitude": 103.8640093973725
    },
    "postal": "558979"
  },
  {
    "name": "CHIJ OUR LADY OF THE NATIVITY",
    "school_type": "primary",
    "address": "1257 UPPER SERANGOON ROAD SINGAPORE 534793",
    "coordinates": {
      "latitude": 1.373302971401289,
      "longitude": 103.8975757283031
    },
    "postal": "534793"
  },
  {
    "name": "CHIJ OUR LADY QUEEN OF PEACE",
    "school_type": "primary",
    "address": "1257 UPPER SERANGOON ROAD SINGAPORE 534793",
    "coordinates": {
      "latitude": 1.366460141363635,
      "longitude": 103.7687392567086
    },
    "postal": "679330"
  },
  {
    "name": "CHIJ PRIMARY (TOA PAYOH)",
    "school_type": "primary",
    "address": "628 LORONG 1 TOA PAYOH CHIJ PRIMARY (TOA PAYOH) SINGAPORE 319765",
    "coordinates": {
      "latitude": 1.332752647115879,
      "longitude": 103.8418472637856
    },
    "postal": "319765"
  },
  {
    "name": "CHIJ ST. NICHOLAS GIRLS' SCHOOL",
    "school_type": "primary",
    "address": "501 ANG MO KIO STREET 13 CHIJ SAINT NICHOLAS GIRLS' SCHOOL SINGAPORE 569405",
    "coordinates": {
      "latitude": 1.373476878789176,
      "longitude": 103.8342532694353
    },
    "postal": "569405"
  },
  {
    "name": "CHONGFU SCHOOL",
    "school_type": "primary",
    "address": "170 YISHUN AVENUE 6 SINGAPORE 768959",
    "coordinates": {
      "latitude": 1.438395628970071,
      "longitude": 103.8393091738164
    },
    "postal": "768959"
  },
  {
    "name": "CHONGZHENG PRIMARY SCHOOL",
    "school_type": "primary",
    "address": "1 TAMPINES STREET 21 CHONGZHENG PRIMARY SCHOOL SINGAPORE 529392",
    "coordinates": {
      "latitude": 1.350707392377436,
      "longitude": 103.951399541868
    },
    "postal": "529392"
  },
  {
    "name": "CHUA CHU KANG PRIMARY SCHOOL",
    "school_type": "primary",
    "address": "20 CHOA CHU KANG AVENUE 2 SINGAPORE 689905",
    "coordinates": {
      "latitude": 1.377758900933685,
      "longitude": 103.7418329174204
    },
    "postal": "689905"
  },
  {
    "name": "CLEMENTI PRIMARY SCHOOL",
    "school_type": "primary",
    "address": "20 CHOA CHU KANG AVENUE 2 SINGAPORE 689905",
    "coordinates": {
      "latitude": 1.315063218278743,
      "longitude": 103.7631444936865
    },
    "postal": "129903"
  },
  {
    "name": "COMPASSVALE PRIMARY SCHOOL",
    "school_type": "primary",
    "address": "21 COMPASSVALE STREET SINGAPORE 545091",
    "coordinates": {
      "latitude": 1.394445296365664,
      "longitude": 103.8978122299046
    },
    "postal": "545091"
  },
  {
    "name": "CONCORD PRIMARY SCHOOL",
    "school_type": "primary",
    "address": "3 CHOA CHU KANG AVENUE 4 SINGAPORE 689814",
    "coordinates": {
      "latitude": 1.380008061972414,
      "longitude": 103.7362254407264
    },
    "postal": "689814"
  },
  {
    "name": "CORPORATION PRIMARY SCHOOL",
    "school_type": "primary",
    "address": "31 JURONG WEST STREET 24 SINGAPORE 648347",
    "coordinates": {
      "latitude": 1.350997798725388,
      "longitude": 103.7075937243418
    },
    "postal": "648347"
  },
  {
    "name": "DAZHONG PRIMARY SCHOOL",
    "school_type": "primary",
    "address": "31 JURONG WEST STREET 24 SINGAPORE 648347",
    "coordinates": {
      "latitude": 1.359179744727699,
      "longitude": 103.7484721078394
    },
    "postal": "659441"
  },
  {
    "name": "DE LA SALLE SCHOOL",
    "school_type": "primary",
    "address": "11 CHOA CHU KANG STREET 52 SINGAPORE 689285",
    "coordinates": {
      "latitude": 1.394707829639912,
      "longitude": 103.7432018128304
    },
    "postal": "689285"
  },
  {
    "name": "EAST SPRING PRIMARY SCHOOL",
    "school_type": "primary",
    "address": "31 TAMPINES STREET 33 SINGAPORE 529258",
    "coordinates": {
      "latitude": 1.352684007463578,
      "longitude": 103.9616768491644
    },
    "postal": "529258"
  },
  {
    "name": "EDGEFIELD PRIMARY SCHOOL",
    "school_type": "primary",
    "address": "31 TAMPINES STREET 33 SINGAPORE 529258",
    "coordinates": {
      "latitude": 1.400091395109958,
      "longitude": 103.907847599114
    },
    "postal": "828869"
  },
  {
    "name": "ELIAS PARK PRIMARY SCHOOL",
    "school_type": "primary",
    "address": "11 PASIR RIS STREET 52 SINGAPORE 518866",
    "coordinates": {
      "latitude": 1.375056963158182,
      "longitude": 103.9452894168725
    },
    "postal": "NIL"
  },
  {
    "name": "ENDEAVOUR PRIMARY SCHOOL",
    "school_type": "primary",
    "address": "11 PASIR RIS STREET 52 SINGAPORE 518866",
    "coordinates": {
      "latitude": 1.454038374993021,
      "longitude": 103.8174362317305
    },
    "postal": "757521"
  },
  {
    "name": "EVERGREEN PRIMARY SCHOOL",
    "school_type": "primary",
    "address": "31 WOODLANDS CIRCLE EVERGREEN PRIMARY SCHOOL SINGAPORE 738908",
    "coordinates": {
      "latitude": 1.444153328247356,
      "longitude": 103.7945777877569
    },
    "postal": "738908"
  },
  {
    "name": "FAIRFIELD METHODIST SCHOOL (PRIMARY)",
    "school_type": "primary",
    "address": "100 DOVER ROAD COMMIT LEARNING SCHOOLHOUSE @ FAIRFIELD METHODIST SCHOOL (PRIMARY)",
    "coordinates": {
      "latitude": 1.301004419167346,
      "longitude": 103.785455606827
    },
    "postal": "NIL"
  },
  {
    "name": "FARRER PARK PRIMARY SCHOOL",
    "school_type": "primary",
    "address": "2 FARRER PARK ROAD SINGAPORE 217567",
    "coordinates": {
      "latitude": 1.312368676813718,
      "longitude": 103.8507664029651
    },
    "postal": "217567"
  },
  {
    "name": "FENGSHAN PRIMARY SCHOOL",
    "school_type": "primary",
    "address": "2 FARRER PARK ROAD SINGAPORE 217567",
    "coordinates": {
      "latitude": 1.32980598760785,
      "longitude": 103.9317102930578
    },
    "postal": "469680"
  },
  {
    "name": "FERN GREEN PRIMARY SCHOOL",
    "school_type": "primary",
    "address": "70 FERNVALE LINK FERN GREEN PRIMARY SCHOOL SINGAPORE 797538",
    "coordinates": {
      "latitude": 1.397269660504794,
      "longitude": 103.8803303056833
    },
    "postal": "797538"
  },
  {
    "name": "FERNVALE PRIMARY SCHOOL",
    "school_type": "primary",
    "address": "1 FERNVALE LANE SINGAPORE 797701",
    "coordinates": {
      "latitude": 1.390302279637964,
      "longitude": 103.874445458032
    },
    "postal": "797701"
  },
  {
    "name": "FIRST TOA PAYOH PRIMARY SCHOOL",
    "school_type": "primary",
    "address": "1 FERNVALE LANE SINGAPORE 797701",
    "coordinates": {
      "latitude": 1.34032299499939,
      "longitude": 103.8555299061816
    },
    "postal": "319252"
  },
  {
    "name": "FRONTIER PRIMARY SCHOOL",
    "school_type": "primary",
    "address": "20 JURONG WEST STREET 61 SINGAPORE 648200",
    "coordinates": {
      "latitude": 1.336412987432344,
      "longitude": 103.6997017393095
    },
    "postal": "648200"
  },
  {
    "name": "FUCHUN PRIMARY SCHOOL",
    "school_type": "primary",
    "address": "23 WOODLANDS AVENUE 1 FUCHUN PRIMARY SCHOOL SINGAPORE 739063",
    "coordinates": {
      "latitude": 1.430479908101254,
      "longitude": 103.7781929442981
    },
    "postal": "739063"
  },
  {
    "name": "FUHUA PRIMARY SCHOOL",
    "school_type": "primary",
    "address": "65 JURONG EAST STREET 13 AMP-MERCU STUDENT CARE CENTRE @ FUHUA PRIMARY SCHOOL",
    "coordinates": {
      "latitude": 1.336597264658171,
      "longitude": 103.7360894818831
    },
    "postal": "NIL"
  },
  {
    "name": "GAN ENG SENG PRIMARY SCHOOL",
    "school_type": "primary",
    "address": "100 REDHILL CLOSE SINGAPORE 158901",
    "coordinates": {
      "latitude": 1.285595164949621,
      "longitude": 103.8155474100632
    },
    "postal": "158901"
  },
  {
    "name": "GEYLANG METHODIST SCHOOL (PRIMARY)",
    "school_type": "primary",
    "address": "4 GEYLANG EAST CENTRAL GEYLANG METHODIST SCHOOL (PRIMARY) SINGAPORE 389706",
    "coordinates": {
      "latitude": 1.317591267572844,
      "longitude": 103.883845744916
    },
    "postal": "389706"
  },
  {
    "name": "GONGSHANG PRIMARY SCHOOL",
    "school_type": "primary",
    "address": "1 TAMPINES STREET 42 SINGAPORE 529176",
    "coordinates": {
      "latitude": 1.357116067902936,
      "longitude": 103.9491447972771
    },
    "postal": "NIL"
  },
  {
    "name": "GREENDALE PRIMARY SCHOOL",
    "school_type": "primary",
    "address": "50 EDGEDALE PLAINS GREENDALE PRIMARY SCHOOL SINGAPORE 828848",
    "coordinates": {
      "latitude": 1.39648195114255,
      "longitude": 103.9123346207095
    },
    "postal": "828848"
  },
  {
    "name": "GREENRIDGE PRIMARY SCHOOL",
    "school_type": "primary",
    "address": "11 JELAPANG ROAD SINGAPORE 677744",
    "coordinates": {
      "latitude": 1.385889219369218,
      "longitude": 103.7677944692579
    },
    "postal": "677744"
  },
  {
    "name": "GREENWOOD PRIMARY SCHOOL",
    "school_type": "primary",
    "address": "11 WOODLANDS DRIVE 62 SINGAPORE 737942",
    "coordinates": {
      "latitude": 1.439899583317834,
      "longitude": 103.8047255873839
    },
    "postal": "737942"
  },
  {
    "name": "HAIG GIRLS' SCHOOL",
    "school_type": "primary",
    "address": "51 KOON SENG ROAD HAIG GIRLS' SCHOOL SINGAPORE 427072",
    "coordinates": {
      "latitude": 1.311943442713839,
      "longitude": 103.9029025571947
    },
    "postal": "427072"
  },
  {
    "name": "HENRY PARK PRIMARY SCHOOL",
    "school_type": "primary",
    "address": "1 HOLLAND GROVE ROAD SINGAPORE 278790",
    "coordinates": {
      "latitude": 1.316676461783479,
      "longitude": 103.7842962277468
    },
    "postal": "278790"
  },
  {
    "name": "HOLY INNOCENTS' PRIMARY SCHOOL",
    "school_type": "primary",
    "address": "5 LORONG LOW KOON HOLY INNOCENTS' PRIMARY SCHOOL SINGAPORE 536451",
    "coordinates": {
      "latitude": 1.366938308773486,
      "longitude": 103.8941148997942
    },
    "postal": "536451"
  },
  {
    "name": "HONG WEN SCHOOL",
    "school_type": "primary",
    "address": "30 TOWNER ROAD SINGAPORE 327829",
    "coordinates": {
      "latitude": 1.321759999645534,
      "longitude": 103.8576284688807
    },
    "postal": "327829"
  },
  {
    "name": "HORIZON PRIMARY SCHOOL",
    "school_type": "primary",
    "address": "61 EDGEDALE PLAINS SINGAPORE 828819",
    "coordinates": {
      "latitude": 1.399550034492005,
      "longitude": 103.9134048556651
    },
    "postal": "828819"
  },
  {
    "name": "HOUGANG PRIMARY SCHOOL",
    "school_type": "primary",
    "address": "61 EDGEDALE PLAINS SINGAPORE 828819",
    "coordinates": {
      "latitude": 1.377382452314626,
      "longitude": 103.8808052745566
    },
    "postal": "534238"
  },
  {
    "name": "HUAMIN PRIMARY SCHOOL",
    "school_type": "primary",
    "address": "61 EDGEDALE PLAINS SINGAPORE 828819",
    "coordinates": {
      "latitude": 1.426972845129362,
      "longitude": 103.8442402265639
    },
    "postal": "768857"
  },
  {
    "name": "INNOVA PRIMARY SCHOOL",
    "school_type": "primary",
    "address": "80 WOODLANDS DRIVE 17 INNOVA PRIMARY SCHOOL SINGAPORE 737888",
    "coordinates": {
      "latitude": 1.42896700684852,
      "longitude": 103.7906075391852
    },
    "postal": "737888"
  },
  {
    "name": "JIEMIN PRIMARY SCHOOL",
    "school_type": "primary",
    "address": "2 YISHUN STREET 71 SINGAPORE 768515",
    "coordinates": {
      "latitude": 1.427688476652264,
      "longitude": 103.8304254900925
    },
    "postal": "768515"
  },
  {
    "name": "JING SHAN PRIMARY SCHOOL",
    "school_type": "primary",
    "address": "2 YISHUN STREET 71 SINGAPORE 768515",
    "coordinates": {
      "latitude": 1.372232909834984,
      "longitude": 103.852132214306
    },
    "postal": "569228"
  },
  {
    "name": "JUNYUAN PRIMARY SCHOOL",
    "school_type": "primary",
    "address": "2 TAMPINES STREET 91 SINGAPORE 528906",
    "coordinates": {
      "latitude": 1.347870747667462,
      "longitude": 103.9392217090732
    },
    "postal": "528906"
  },
  {
    "name": "JURONG PRIMARY SCHOOL",
    "school_type": "primary",
    "address": "320 JURONG EAST STREET 32 SINGAPORE 609476",
    "coordinates": {
      "latitude": 1.348438596989479,
      "longitude": 103.7331565668572
    },
    "postal": "609476"
  },
  {
    "name": "JURONG WEST PRIMARY SCHOOL",
    "school_type": "primary",
    "address": "320 JURONG EAST STREET 32 SINGAPORE 609476",
    "coordinates": {
      "latitude": 1.33917519796104,
      "longitude": 103.6988037322437
    },
    "postal": "648368"
  },
  {
    "name": "KEMING PRIMARY SCHOOL",
    "school_type": "primary",
    "address": "90 BUKIT BATOK EAST AVENUE 6 SINGAPORE 659762",
    "coordinates": {
      "latitude": 1.345528499608757,
      "longitude": 103.7564493993506
    },
    "postal": "659762"
  },
  {
    "name": "KHENG CHENG SCHOOL",
    "school_type": "primary",
    "address": "15 LORONG 3 TOA PAYOH KHENG CHENG SCHOOL SINGAPORE 319580",
    "coordinates": {
      "latitude": 1.337338193563907,
      "longitude": 103.8471485018234
    },
    "postal": "319580"
  },
  {
    "name": "KONG HWA SCHOOL",
    "school_type": "primary",
    "address": "350 GUILLEMARD ROAD SINGAPORE 399772",
    "coordinates": {
      "latitude": 1.310996740091935,
      "longitude": 103.8883520290672
    },
    "postal": "399772"
  },
  {
    "name": "KUO CHUAN PRESBYTERIAN PRIMARY SCHOOL",
    "school_type": "primary",
    "address": "8 BISHAN STREET 13 SINGAPORE 579793",
    "coordinates": {
      "latitude": 1.349782237509823,
      "longitude": 103.8545292878501
    },
    "postal": "579802"
  },
  {
    "name": "LAKESIDE PRIMARY SCHOOL",
    "school_type": "primary",
    "address": "161 CORPORATION WALK SINGAPORE 618310",
    "coordinates": {
      "latitude": 1.338203977042863,
      "longitude": 103.718089546664
    },
    "postal": "618310"
  },
  {
    "name": "LIANHUA PRIMARY SCHOOL",
    "school_type": "primary",
    "address": "161 CORPORATION WALK SINGAPORE 618310",
    "coordinates": {
      "latitude": 1.354241911272948,
      "longitude": 103.7541658287112
    },
    "postal": "659243"
  },
  {
    "name": "MAHA BODHI SCHOOL",
    "school_type": "primary",
    "address": "10 UBI AVENUE 1 SINGAPORE 408931",
    "coordinates": {
      "latitude": 1.328580238735551,
      "longitude": 103.9013069041567
    },
    "postal": "NIL"
  },
  {
    "name": "MARIS STELLA HIGH SCHOOL",
    "school_type": "primary",
    "address": "25 MOUNT VERNON ROAD SINGAPORE 368051",
    "coordinates": {
      "latitude": 1.341394733236683,
      "longitude": 103.8778524844351
    },
    "postal": "368051"
  },
  {
    "name": "MARSILING PRIMARY SCHOOL",
    "school_type": "primary",
    "address": "31 WOODLANDS CENTRE ROAD SINGAPORE 738927",
    "coordinates": {
      "latitude": 1.43383904037059,
      "longitude": 103.7736430138458
    },
    "postal": "738927"
  },
  {
    "name": "MARYMOUNT CONVENT SCHOOL",
    "school_type": "primary",
    "address": "20 MARYMOUNT ROAD SINGAPORE 297754",
    "coordinates": {
      "latitude": 1.340366769873745,
      "longitude": 103.8400210644257
    },
    "postal": "297754"
  },
  {
    "name": "MAYFLOWER PRIMARY SCHOOL",
    "school_type": "primary",
    "address": "200 ANG MO KIO AVENUE 5 SINGAPORE 569878",
    "coordinates": {
      "latitude": 1.376376835476832,
      "longitude": 103.8432528037418
    },
    "postal": "569878"
  },
  {
    "name": "MEE TOH SCHOOL",
    "school_type": "primary",
    "address": "21 EDGEDALE PLAINS SINGAPORE 828867",
    "coordinates": {
      "latitude": 1.394618453859209,
      "longitude": 103.9085894942275
    },
    "postal": "828867"
  },
  {
    "name": "MERIDIAN PRIMARY SCHOOL",
    "school_type": "primary",
    "address": "20 PASIR RIS STREET 71 SINGAPORE 518798",
    "coordinates": {
      "latitude": 1.375528316584852,
      "longitude": 103.9348890785176
    },
    "postal": "518798"
  },
  {
    "name": "METHODIST GIRLS' SCHOOL (PRIMARY)",
    "school_type": "primary",
    "address": "298 LORONG AH SOO PAYA LEBAR METHODIST GIRLS' SCHOOL (PRIMARY) SINGAPORE 536741",
    "coordinates": {
      "latitude": 1.349472762683966,
      "longitude": 103.8849713431423
    },
    "postal": "536741"
  },
  {
    "name": "MONTFORT JUNIOR SCHOOL",
    "school_type": "primary",
    "address": "52 HOUGANG AVENUE 8 MONTFORT JUNIOR SCHOOL SINGAPORE 538786",
    "coordinates": {
      "latitude": 1.373824440759788,
      "longitude": 103.889307782925
    },
    "postal": "538786"
  },
  {
    "name": "NAN CHIAU PRIMARY SCHOOL",
    "school_type": "primary",
    "address": "50 ANCHORVALE LINK SINGAPORE 545080",
    "coordinates": {
      "latitude": 1.392211499065922,
      "longitude": 103.8911809281854
    },
    "postal": "545080"
  },
  {
    "name": "NAN HUA PRIMARY SCHOOL",
    "school_type": "primary",
    "address": "30 JALAN LEMPENG SINGAPORE 128806",
    "coordinates": {
      "latitude": 1.319201599563877,
      "longitude": 103.7610950657604
    },
    "postal": "128806"
  },
  {
    "name": "NANYANG PRIMARY SCHOOL",
    "school_type": "primary",
    "address": "52 KING'S ROAD SINGAPORE 268097",
    "coordinates": {
      "latitude": 1.320847499045325,
      "longitude": 103.8077501552959
    },
    "postal": "268097"
  },
  {
    "name": "NAVAL BASE PRIMARY SCHOOL",
    "school_type": "primary",
    "address": "7 YISHUN AVENUE 4 NAVAL BASE PRIMARY SCHOOL SINGAPORE 769028",
    "coordinates": {
      "latitude": 1.416306631593873,
      "longitude": 103.8387940772327
    },
    "postal": "769028"
  },
  {
    "name": "NEW TOWN PRIMARY SCHOOL",
    "school_type": "primary",
    "address": "300 TANGLIN HALT ROAD SINGAPORE 148812",
    "coordinates": {
      "latitude": 1.299641881810217,
      "longitude": 103.8001021630402
    },
    "postal": "148812"
  },
  {
    "name": "NGEE ANN PRIMARY SCHOOL",
    "school_type": "primary",
    "address": "344 MARINE TERRACE SINGAPORE 449149",
    "coordinates": {
      "latitude": 1.305525059104983,
      "longitude": 103.9174630174967
    },
    "postal": "449149"
  },
  {
    "name": "NORTH SPRING PRIMARY SCHOOL",
    "school_type": "primary",
    "address": "1 RIVERVALE STREET NORTH SPRING PRIMARY SCHOOL SINGAPORE 545088",
    "coordinates": {
      "latitude": 1.387061464948597,
      "longitude": 103.9032026830277
    },
    "postal": "545088"
  },
  {
    "name": "NORTH VIEW PRIMARY SCHOOL",
    "school_type": "primary",
    "address": "210 YISHUN AVENUE 6 SINGAPORE 768960",
    "coordinates": {
      "latitude": 1.427523271937279,
      "longitude": 103.8481907878688
    },
    "postal": "768960"
  },
  {
    "name": "NORTH VISTA PRIMARY SCHOOL",
    "school_type": "primary",
    "address": "20 COMPASSVALE LINK SINGAPORE 544974",
    "coordinates": {
      "latitude": 1.382822430162999,
      "longitude": 103.8959618779278
    },
    "postal": "544974"
  },
  {
    "name": "NORTHLAND PRIMARY SCHOOL",
    "school_type": "primary",
    "address": "15 YISHUN AVENUE 4 SINGAPORE 769026",
    "coordinates": {
      "latitude": 1.420969899189534,
      "longitude": 103.840928424929
    },
    "postal": "769026"
  },
  {
    "name": "NORTHOAKS PRIMARY SCHOOL",
    "school_type": "primary",
    "address": "61 SEMBAWANG DRIVE SINGAPORE 757622",
    "coordinates": {
      "latitude": 1.45660782030104,
      "longitude": 103.814196981329
    },
    "postal": "757622"
  },
  {
    "name": "NORTHSHORE PRIMARY SCHOOL",
    "school_type": "primary",
    "address": "30 NORTHSHORE DRIVE NORTHSHORE PRIMARY SCHOOL SINGAPORE 828671",
    "coordinates": {
      "latitude": 1.418138033366677,
      "longitude": 103.9044169097418
    },
    "postal": "828671"
  },
  {
    "name": "OASIS PRIMARY SCHOOL",
    "school_type": "primary",
    "address": "71 EDGEFIELD PLAINS OASIS PRIMARY SCHOOL SINGAPORE 828716",
    "coordinates": {
      "latitude": 1.404624132007935,
      "longitude": 103.9111206006377
    },
    "postal": "828716"
  },
  {
    "name": "OPERA ESTATE PRIMARY SCHOOL",
    "school_type": "primary",
    "address": "48 FIDELIO STREET SINGAPORE 458436",
    "coordinates": {
      "latitude": 1.319319144362567,
      "longitude": 103.923788259248
    },
    "postal": "458436"
  },
  {
    "name": "PALM VIEW PRIMARY SCHOOL",
    "school_type": "primary",
    "address": "150 COMPASSVALE BOW SINGAPORE 544822",
    "coordinates": {
      "latitude": 1.383769230221237,
      "longitude": 103.891354675017
    },
    "postal": "544822"
  },
  {
    "name": "PARK VIEW PRIMARY SCHOOL",
    "school_type": "primary",
    "address": "150 COMPASSVALE BOW SINGAPORE 544822",
    "coordinates": {
      "latitude": 1.377380698542497,
      "longitude": 103.9395416956535
    },
    "postal": "519524"
  },
  {
    "name": "PASIR RIS PRIMARY SCHOOL",
    "school_type": "primary",
    "address": "5 PASIR RIS STREET 21 SINGAPORE 518968",
    "coordinates": {
      "latitude": 1.372418702455316,
      "longitude": 103.9628072121161
    },
    "postal": "518968"
  },
  {
    "name": "PAYA LEBAR METHODIST GIRLS' SCHOOL (PRIMARY)",
    "school_type": "primary",
    "address": "298 LORONG AH SOO PAYA LEBAR METHODIST GIRLS' SCHOOL (PRIMARY) SINGAPORE 536741",
    "coordinates": {
      "latitude": 1.349472762683966,
      "longitude": 103.8849713431423
    },
    "postal": "536741"
  },
  {
    "name": "PEI CHUN PUBLIC SCHOOL",
    "school_type": "primary",
    "address": "16 LORONG 7 TOA PAYOH PEI CHUN PUBLIC SCHOOL SINGAPORE 319320",
    "coordinates": {
      "latitude": 1.33737358725953,
      "longitude": 103.8555855780611
    },
    "postal": "319320"
  },
  {
    "name": "PEI HWA PRESBYTERIAN PRIMARY SCHOOL",
    "school_type": "primary",
    "address": "7 PEI WAH AVENUE SINGAPORE 597610",
    "coordinates": {
      "latitude": 1.338056346130476,
      "longitude": 103.7761064486133
    },
    "postal": "597610"
  },
  {
    "name": "PEI TONG PRIMARY SCHOOL",
    "school_type": "primary",
    "address": "15 CLEMENTI AVENUE 5 SINGAPORE 129857",
    "coordinates": {
      "latitude": 1.31619786415977,
      "longitude": 103.7675998188441
    },
    "postal": "129857"
  },
  {
    "name": "PEIYING PRIMARY SCHOOL",
    "school_type": "primary",
    "address": "651 YISHUN RING ROAD COMMIT LEARNING SCHOOLHOUSE @ PEIYING PRIMARY SCHOOL",
    "coordinates": {
      "latitude": 1.417416275512517,
      "longitude": 103.8301432098749
    },
    "postal": "NIL"
  },
  {
    "name": "PIONEER PRIMARY SCHOOL",
    "school_type": "primary",
    "address": "80 TENGAH GARDEN AVENUE SINGAPORE 699915",
    "coordinates": {
      "latitude": 1.354425929307369,
      "longitude": 103.7327909201966
    },
    "postal": "699915"
  },
  {
    "name": "POI CHING SCHOOL",
    "school_type": "primary",
    "address": "21 TAMPINES STREET 71 SINGAPORE 529067",
    "coordinates": {
      "latitude": 1.35765122315688,
      "longitude": 103.9352464771987
    },
    "postal": "529067"
  },
  {
    "name": "PRINCESS ELIZABETH PRIMARY SCHOOL",
    "school_type": "primary",
    "address": "30 BUKIT BATOK WEST AVENUE 3 PRINCESS ELIZABETH PRIMARY SCHOOL SINGAPORE 659163",
    "coordinates": {
      "latitude": 1.349203512653009,
      "longitude": 103.7410196447094
    },
    "postal": "659163"
  },
  {
    "name": "PUNGGOL COVE PRIMARY SCHOOL",
    "school_type": "primary",
    "address": "52 SUMANG WALK SINGAPORE 828674",
    "coordinates": {
      "latitude": 1.411599232730683,
      "longitude": 103.8988039211635
    },
    "postal": "828674"
  },
  {
    "name": "PUNGGOL GREEN PRIMARY SCHOOL",
    "school_type": "primary",
    "address": "98 PUNGGOL WALK SINGAPORE 828772",
    "coordinates": {
      "latitude": 1.401872206432952,
      "longitude": 103.8988013303018
    },
    "postal": "828772"
  },
  {
    "name": "PUNGGOL PRIMARY SCHOOL",
    "school_type": "primary",
    "address": "98 PUNGGOL WALK SINGAPORE 828772",
    "coordinates": {
      "latitude": 1.378200625476397,
      "longitude": 103.8946671595121
    },
    "postal": "NIL"
  },
  {
    "name": "PUNGGOL VIEW PRIMARY SCHOOL",
    "school_type": "primary",
    "address": "9 PUNGGOL PLACE PUNGGOL VIEW PRIMARY SCHOOL SINGAPORE 828845",
    "coordinates": {
      "latitude": 1.405145826479627,
      "longitude": 103.9051563713755
    },
    "postal": "828845"
  },
  {
    "name": "QIFA PRIMARY SCHOOL",
    "school_type": "primary",
    "address": "50 WEST COAST AVENUE SINGAPORE 128104",
    "coordinates": {
      "latitude": 1.313265832680701,
      "longitude": 103.7566291018106
    },
    "postal": "NIL"
  },
  {
    "name": "QIHUA PRIMARY SCHOOL",
    "school_type": "primary",
    "address": "5 WOODLANDS STREET 81 SINGAPORE 738525",
    "coordinates": {
      "latitude": 1.442035965575938,
      "longitude": 103.7883397620653
    },
    "postal": "NIL"
  },
  {
    "name": "QUEENSTOWN PRIMARY SCHOOL",
    "school_type": "primary",
    "address": "310 MARGARET DRIVE QUEENSTOWN PRIMARY SCHOOL SINGAPORE 149303",
    "coordinates": {
      "latitude": 1.295593650090142,
      "longitude": 103.8075486173318
    },
    "postal": "149303"
  },
  {
    "name": "RADIN MAS PRIMARY SCHOOL",
    "school_type": "primary",
    "address": "1 BUKIT PURMEI AVENUE SINGAPORE 099840",
    "coordinates": {
      "latitude": 1.274958236226361,
      "longitude": 103.8241882703726
    },
    "postal": "099840"
  },
  {
    "name": "RAFFLES GIRLS' PRIMARY SCHOOL",
    "school_type": "primary",
    "address": "21 HILLCREST ROAD RAFFLES GIRLS' PRIMARY SCHOOL SINGAPORE 289072",
    "coordinates": {
      "latitude": 1.329404260001214,
      "longitude": 103.806442915912
    },
    "postal": "289072"
  },
  {
    "name": "RED SWASTIKA SCHOOL",
    "school_type": "primary",
    "address": "350 BEDOK NORTH AVENUE 3 SINGAPORE 469719",
    "coordinates": {
      "latitude": 1.334056595808593,
      "longitude": 103.9343175284833
    },
    "postal": "NIL"
  },
  {
    "name": "RIVER VALLEY PRIMARY SCHOOL",
    "school_type": "primary",
    "address": "2 RIVER VALLEY GREEN SINGAPORE 237993",
    "coordinates": {
      "latitude": 1.294183478428372,
      "longitude": 103.8360189415711
    },
    "postal": "NIL"
  },
  {
    "name": "RIVERSIDE PRIMARY SCHOOL",
    "school_type": "primary",
    "address": "110 WOODLANDS CRESCENT SINGAPORE 737803",
    "coordinates": {
      "latitude": 1.447004264937856,
      "longitude": 103.8018890313332
    },
    "postal": "NIL"
  },
  {
    "name": "RIVERVALE PRIMARY SCHOOL",
    "school_type": "primary",
    "address": "80 RIVERVALE DRIVE SINGAPORE 545092",
    "coordinates": {
      "latitude": 1.393409977677617,
      "longitude": 103.9045595119971
    },
    "postal": "545092"
  },
  {
    "name": "ROSYTH SCHOOL",
    "school_type": "primary",
    "address": "80 RIVERVALE DRIVE SINGAPORE 545092",
    "coordinates": {
      "latitude": 1.372890674990646,
      "longitude": 103.8750015491733
    },
    "postal": "555855"
  },
  {
    "name": "RULANG PRIMARY SCHOOL",
    "school_type": "primary",
    "address": "6 JURONG WEST STREET 52 RULANG PRIMARY SCHOOL SINGAPORE 649295",
    "coordinates": {
      "latitude": 1.346738688890966,
      "longitude": 103.7184579554868
    },
    "postal": "649295"
  },
  {
    "name": "SEMBAWANG PRIMARY SCHOOL",
    "school_type": "primary",
    "address": "10 SEMBAWANG DRIVE SINGAPORE 757715",
    "coordinates": {
      "latitude": 1.445046762056599,
      "longitude": 103.82102212387
    },
    "postal": "757715"
  },
  {
    "name": "SENG KANG PRIMARY SCHOOL",
    "school_type": "primary",
    "address": "21 COMPASSVALE WALK SENG KANG PRIMARY SCHOOL SINGAPORE 545166",
    "coordinates": {
      "latitude": 1.389497404224623,
      "longitude": 103.8997671120465
    },
    "postal": "545166"
  },
  {
    "name": "SENGKANG GREEN PRIMARY SCHOOL",
    "school_type": "primary",
    "address": "15 FERNVALE ROAD SINGAPORE 797636",
    "coordinates": {
      "latitude": 1.39284606680478,
      "longitude": 103.8752176664857
    },
    "postal": "797636"
  },
  {
    "name": "SHUQUN PRIMARY SCHOOL",
    "school_type": "primary",
    "address": "8 JURONG WEST STREET 51 SHUQUN PRIMARY SCHOOL SINGAPORE 649332",
    "coordinates": {
      "latitude": 1.347653114316325,
      "longitude": 103.7215237133784
    },
    "postal": "649332"
  },
  {
    "name": "SI LING PRIMARY SCHOOL",
    "school_type": "primary",
    "address": "61 WOODLANDS AVENUE 1 SINGAPORE 739067",
    "coordinates": {
      "latitude": 1.432409357325257,
      "longitude": 103.786035065192
    },
    "postal": "739067"
  },
  {
    "name": "SINGAPORE CHINESE GIRLS' PRIMARY SCHOOL",
    "school_type": "primary",
    "address": "190 DUNEARN ROAD SINGAPORE CHINESE GIRLS' SCHOOL (PRIMARY)",
    "coordinates": {
      "latitude": 1.320807252359937,
      "longitude": 103.8277447495481
    },
    "postal": "NIL"
  },
  {
    "name": "SOUTH VIEW PRIMARY SCHOOL",
    "school_type": "primary",
    "address": "6 CHOA CHU KANG CENTRAL SINGAPORE 689762",
    "coordinates": {
      "latitude": 1.381666643897507,
      "longitude": 103.7462758460104
    },
    "postal": "689762"
  },
  {
    "name": "SPRINGDALE PRIMARY SCHOOL",
    "school_type": "primary",
    "address": "6 CHOA CHU KANG CENTRAL SINGAPORE 689762",
    "coordinates": {
      "latitude": 1.394670102992936,
      "longitude": 103.8899262212472
    },
    "postal": "544799"
  },
  {
    "name": "ST ANDREW'S SCHOOL (JUNIOR)",
    "school_type": "primary",
    "address": "2 FRANCIS THOMAS DRIVE ST ANDREW'S SCHOOL (JUNIOR) SINGAPORE 359337",
    "coordinates": {
      "latitude": 1.331402553088687,
      "longitude": 103.8651171343843
    },
    "postal": "359337"
  },
  {
    "name": "ST. ANTHONY'S CANOSSIAN PRIMARY SCHOOL",
    "school_type": "primary",
    "address": "1602 BEDOK NORTH AVENUE 4 SAINT ANTHONY'S CANOSSIAN PRIMARY SCHOOL SINGAPORE 469701",
    "coordinates": {
      "latitude": 1.33472537301891,
      "longitude": 103.9412348682017
    },
    "postal": "469701"
  },
  {
    "name": "ST. ANTHONY'S PRIMARY SCHOOL",
    "school_type": "primary",
    "address": "1602 BEDOK NORTH AVENUE 4 SAINT ANTHONY'S CANOSSIAN PRIMARY SCHOOL SINGAPORE 469701",
    "coordinates": {
      "latitude": 1.33472537301891,
      "longitude": 103.9412348682017
    },
    "postal": "469701"
  },
  {
    "name": "ST. GABRIEL'S PRIMARY SCHOOL",
    "school_type": "primary",
    "address": "220 LORONG CHUAN SAINT GABRIEL'S PRIMARY SCHOOL SINGAPORE 556742",
    "coordinates": {
      "latitude": 1.349471926538616,
      "longitude": 103.8625610377067
    },
    "postal": "556742"
  },
  {
    "name": "ST. HILDA'S PRIMARY SCHOOL",
    "school_type": "primary",
    "address": "2 TAMPINES AVENUE 3 SAINT HILDA'S PRIMARY SCHOOL SINGAPORE 529706",
    "coordinates": {
      "latitude": 1.349385650363364,
      "longitude": 103.9370071336614
    },
    "postal": "529706"
  },
  {
    "name": "ST. JOSEPH'S INSTITUTION JUNIOR",
    "school_type": "primary",
    "address": "3 ESSEX ROAD MORNING STAR COMMUNITY SERVICES (ST JOSEPH'S INSTITUTION JUNIOR)",
    "coordinates": {
      "latitude": 1.317814761185532,
      "longitude": 103.8456333345214
    },
    "postal": "NIL"
  },
  {
    "name": "ST. MARGARET'S SCHOOL (PRIMARY)",
    "school_type": "primary",
    "address": "136 SOPHIA ROAD ST. MARGARET'S SCHOOL (PRIMARY) SINGAPORE 228197",
    "coordinates": {
      "latitude": 1.30390355715255,
      "longitude": 103.8459553156046
    },
    "postal": "228197"
  },
  {
    "name": "ST. STEPHEN'S SCHOOL",
    "school_type": "primary",
    "address": "20 SIGLAP VIEW SAINT STEPHEN'S SCHOOL SINGAPORE 455789",
    "coordinates": {
      "latitude": 1.318789972951361,
      "longitude": 103.9172581295975
    },
    "postal": "455789"
  },
  {
    "name": "TAMPINES NORTH PRIMARY SCHOOL",
    "school_type": "primary",
    "address": "30 TAMPINES AVENUE 9 SINGAPORE 529565",
    "coordinates": {
      "latitude": 1.360476414846836,
      "longitude": 103.9487257828322
    },
    "postal": "529565"
  },
  {
    "name": "TAMPINES PRIMARY SCHOOL",
    "school_type": "primary",
    "address": "250 TAMPINES STREET 12 SINGAPORE 529426",
    "coordinates": {
      "latitude": 1.350486394669401,
      "longitude": 103.943573098509
    },
    "postal": "NIL"
  },
  {
    "name": "TANJONG KATONG PRIMARY SCHOOL",
    "school_type": "primary",
    "address": "10 SERAYA ROAD AFTERSCHOOL @ TANJONG KATONG PRIMARY SCHOOL",
    "coordinates": {
      "latitude": 1.304984890448227,
      "longitude": 103.8999999654065
    },
    "postal": "NIL"
  },
  {
    "name": "TAO NAN SCHOOL",
    "school_type": "primary",
    "address": "39 ARMENIAN STREET FORMER TAO NAN SCHOOL",
    "coordinates": {
      "latitude": 1.294332105249307,
      "longitude": 103.8490261578219
    },
    "postal": "NIL"
  },
  {
    "name": "TECK GHEE PRIMARY SCHOOL",
    "school_type": "primary",
    "address": "1 ANG MO KIO STREET 32 SINGAPORE 569299",
    "coordinates": {
      "latitude": 1.365587820759683,
      "longitude": 103.8509571269816
    },
    "postal": "569299"
  },
  {
    "name": "TECK WHYE PRIMARY SCHOOL",
    "school_type": "primary",
    "address": "11 TECK WHYE WALK SINGAPORE 688261",
    "coordinates": {
      "latitude": 1.383649968344577,
      "longitude": 103.7532918570159
    },
    "postal": "688261"
  },
  {
    "name": "TELOK KURAU PRIMARY SCHOOL",
    "school_type": "primary",
    "address": "50 BEDOK RESERVOIR ROAD SINGAPORE 479239",
    "coordinates": {
      "latitude": 1.331045854413487,
      "longitude": 103.9109340113368
    },
    "postal": "479239"
  },
  {
    "name": "TEMASEK PRIMARY SCHOOL",
    "school_type": "primary",
    "address": "501 BEDOK SOUTH AVENUE 3 SINGAPORE 469300",
    "coordinates": {
      "latitude": 1.317706775513332,
      "longitude": 103.9455906691627
    },
    "postal": "469300"
  },
  {
    "name": "UNITY PRIMARY SCHOOL",
    "school_type": "primary",
    "address": "501 BEDOK SOUTH AVENUE 3 SINGAPORE 469300",
    "coordinates": {
      "latitude": 1.402854818772471,
      "longitude": 103.746822625758
    },
    "postal": "688268"
  },
  {
    "name": "VALOUR PRIMARY SCHOOL",
    "school_type": "primary",
    "address": "49 PUNGGOL CENTRAL SINGAPORE 828728",
    "coordinates": {
      "latitude": 1.406835702153197,
      "longitude": 103.899078139493
    },
    "postal": "828728"
  },
  {
    "name": "WATERWAY PRIMARY SCHOOL",
    "school_type": "primary",
    "address": "70 PUNGGOL DRIVE SINGAPORE 828802",
    "coordinates": {
      "latitude": 1.398828006265785,
      "longitude": 103.9186215815555
    },
    "postal": "828802"
  },
  {
    "name": "WELLINGTON PRIMARY SCHOOL",
    "school_type": "primary",
    "address": "10 WELLINGTON CIRCLE SINGAPORE 757702",
    "coordinates": {
      "latitude": 1.451920191554766,
      "longitude": 103.8223037190938
    },
    "postal": "757702"
  },
  {
    "name": "WEST GROVE PRIMARY SCHOOL",
    "school_type": "primary",
    "address": "10 WELLINGTON CIRCLE SINGAPORE 757702",
    "coordinates": {
      "latitude": 1.344879056001406,
      "longitude": 103.6992863605808
    },
    "postal": "649223"
  },
  {
    "name": "WEST SPRING PRIMARY SCHOOL",
    "school_type": "primary",
    "address": "60 BUKIT PANJANG RING ROAD SINGAPORE 679946",
    "coordinates": {
      "latitude": 1.389441458989443,
      "longitude": 103.7661957118344
    },
    "postal": "679946"
  },
  {
    "name": "WEST VIEW PRIMARY SCHOOL",
    "school_type": "primary",
    "address": "31 SENJA ROAD SINGAPORE 677742",
    "coordinates": {
      "latitude": 1.3836758200336,
      "longitude": 103.7602404343173
    },
    "postal": "677742"
  },
  {
    "name": "WESTWOOD PRIMARY SCHOOL",
    "school_type": "primary",
    "address": "1 JURONG WEST STREET 73 SINGAPORE 649188",
    "coordinates": {
      "latitude": 1.347184566063761,
      "longitude": 103.7005342097801
    },
    "postal": "649188"
  },
  {
    "name": "WHITE SANDS PRIMARY SCHOOL",
    "school_type": "primary",
    "address": "2 PASIR RIS STREET 11 SINGAPORE 519075",
    "coordinates": {
      "latitude": 1.365557146685551,
      "longitude": 103.9609188693188
    },
    "postal": "519075"
  },
  {
    "name": "WOODGROVE PRIMARY SCHOOL",
    "school_type": "primary",
    "address": "2 WOODLANDS DRIVE 14 SINGAPORE 738079",
    "coordinates": {
      "latitude": 1.432736207250495,
      "longitude": 103.7902303139194
    },
    "postal": "NIL"
  },
  {
    "name": "WOODLANDS PRIMARY SCHOOL",
    "school_type": "primary",
    "address": "10 WOODLANDS DRIVE 50 COMMIT LEARNING SCHOOLHOUSE @ WOODLANDS PRIMARY SCHOOL",
    "coordinates": {
      "latitude": 1.436582707202003,
      "longitude": 103.791791282236
    },
    "postal": "NIL"
  },
  {
    "name": "WOODLANDS RING PRIMARY SCHOOL",
    "school_type": "primary",
    "address": "11 WOODLANDS RING ROAD SINGAPORE 738240",
    "coordinates": {
      "latitude": 1.434952293158581,
      "longitude": 103.7974357331442
    },
    "postal": "738240"
  },
  {
    "name": "XINGHUA PRIMARY SCHOOL",
    "school_type": "primary",
    "address": "45 HOUGANG AVENUE 1 SINGAPORE 538882",
    "coordinates": {
      "latitude": 1.357908935895362,
      "longitude": 103.8904728879052
    },
    "postal": "538882"
  },
  {
    "name": "XINGNAN PRIMARY SCHOOL",
    "school_type": "primary",
    "address": "5 JURONG WEST STREET 91 SINGAPORE 649036",
    "coordinates": {
      "latitude": 1.342547448776947,
      "longitude": 103.6879502521022
    },
    "postal": "649036"
  },
  {
    "name": "XINMIN PRIMARY SCHOOL",
    "school_type": "primary",
    "address": "9 HOUGANG AVENUE 8 SINGAPORE 538784",
    "coordinates": {
      "latitude": 1.371395489419313,
      "longitude": 103.883080767491
    },
    "postal": "538784"
  },
  {
    "name": "XISHAN PRIMARY SCHOOL",
    "school_type": "primary",
    "address": "8 YISHUN STREET 21 SINGAPORE 768611",
    "coordinates": {
      "latitude": 1.433471869250645,
      "longitude": 103.8377553194475
    },
    "postal": "768611"
  },
  {
    "name": "YANGZHENG PRIMARY SCHOOL",
    "school_type": "primary",
    "address": "8 YISHUN STREET 21 SINGAPORE 768611",
    "coordinates": {
      "latitude": 1.348645758409243,
      "longitude": 103.868595527042
    },
    "postal": "556108"
  },
  {
    "name": "YEW TEE PRIMARY SCHOOL",
    "school_type": "primary",
    "address": "10 CHOA CHU KANG STREET 64 SINGAPORE 689100",
    "coordinates": {
      "latitude": 1.396766009050365,
      "longitude": 103.7509859673458
    },
    "postal": "689100"
  },
  {
    "name": "YIO CHU KANG PRIMARY SCHOOL",
    "school_type": "primary",
    "address": "1 HOUGANG STREET 51 SINGAPORE 538720",
    "coordinates": {
      "latitude": 1.37793264345277,
      "longitude": 103.885643682171
    },
    "postal": "538720"
  },
  {
    "name": "YISHUN PRIMARY SCHOOL",
    "school_type": "primary",
    "address": "500 YISHUN RING ROAD SINGAPORE 768679",
    "coordinates": {
      "latitude": 1.433386029756746,
      "longitude": 103.8340871159143
    },
    "postal": "768679"
  },
  {
    "name": "YU NENG PRIMARY SCHOOL",
    "school_type": "primary",
    "address": "500 YISHUN RING ROAD SINGAPORE 768679",
    "coordinates": {
      "latitude": 1.333889303440688,
      "longitude": 103.9321448573552
    },
    "postal": "469623"
  },
  {
    "name": "YUHUA PRIMARY SCHOOL",
    "school_type": "primary",
    "address": "158 JURONG EAST STREET 24 SINGAPORE 609558",
    "coordinates": {
      "latitude": 1.34280230475034,
      "longitude": 103.7411057726437
    },
    "postal": "609558"
  },
  {
    "name": "YUMIN PRIMARY SCHOOL",
    "school_type": "primary",
    "address": "3 TAMPINES STREET 21 SINGAPORE 529393",
    "coordinates": {
      "latitude": 1.351291776569808,
      "longitude": 103.9504619270873
    },
    "postal": "529393"
  },
  {
    "name": "ZHANGDE PRIMARY SCHOOL",
    "school_type": "primary",
    "address": "51 JALAN MEMBINA SINGAPORE 169485",
    "coordinates": {
      "latitude": 1.284211533353803,
      "longitude": 103.8259518756613
    },
    "postal": "169485"
  },
  {
    "name": "ZHENGHUA PRIMARY SCHOOL",
    "school_type": "primary",
    "address": "9 FAJAR ROAD ZHENGHUA PRIMARY SCHOOL SINGAPORE 679002",
    "coordinates": {
      "latitude": 1.379548875122303,
      "longitude": 103.7693135217514
    },
    "postal": "679002"
  },
  {
    "name": "ZHONGHUA PRIMARY SCHOOL",
    "school_type": "primary",
    "address": "12 SERANGOON AVENUE 4 ZHONGHUA PRIMARY SCHOOL SINGAPORE 556095",
    "coordinates": {
      "latitude": 1.360203297050483,
      "longitude": 103.8697624380833
    },
    "postal": "556095"
  },
  {
    "name": "ADMIRALTY SECONDARY SCHOOL",
    "school_type": "secondary",
    "address": "31 WOODLANDS CRESCENT SINGAPORE 737916",
    "coordinates": {
      "latitude": 1.445890689109919,
      "longitude": 103.8023981965959
    },
    "postal": "737916"
  },
  {
    "name": "AHMAD IBRAHIM SECONDARY SCHOOL",
    "school_type": "secondary",
    "address": "751 YISHUN AVENUE 7 SINGAPORE 768928",
    "coordinates": {
      "latitude": 1.436059753688065,
      "longitude": 103.8297186900766
    },
    "postal": "768928"
  },
  {
    "name": "ANDERSON SECONDARY SCHOOL",
    "school_type": "secondary",
    "address": "10 ANG MO KIO STREET 53 SINGAPORE 569206",
    "coordinates": {
      "latitude": 1.374340017011785,
      "longitude": 103.8515541070679
    },
    "postal": "569206"
  },
  {
    "name": "ANG MO KIO SECONDARY SCHOOL",
    "school_type": "secondary",
    "address": "6 ANG MO KIO STREET 22 SINGAPORE 569362",
    "coordinates": {
      "latitude": 1.367337101710713,
      "longitude": 103.8421549736715
    },
    "postal": "569362"
  },
  {
    "name": "ANGLICAN HIGH SCHOOL",
    "school_type": "secondary",
    "address": "600 UPPER CHANGI ROAD SINGAPORE 487012",
    "coordinates": {
      "latitude": 1.331181079269668,
      "longitude": 103.9418534656311
    },
    "postal": "487012"
  },
  {
    "name": "ANGLO-CHINESE SCHOOL (BARKER ROAD)",
    "school_type": "secondary",
    "address": "60 BARKER ROAD SINGAPORE 309919",
    "coordinates": {
      "latitude": 1.319616491513279,
      "longitude": 103.8357726899882
    },
    "postal": "309919"
  },
  {
    "name": "ANGLO-CHINESE SCHOOL (INDEPENDENT)",
    "school_type": "secondary",
    "address": "121 DOVER ROAD SINGAPORE 139650",
    "coordinates": {
      "latitude": 1.303704092577828,
      "longitude": 103.7803634176709
    },
    "postal": "139650"
  },
  {
    "name": "ASSUMPTION ENGLISH SCHOOL",
    "school_type": "secondary",
    "address": "622 UPPER BUKIT TIMAH ROAD SINGAPORE 678117",
    "coordinates": {
      "latitude": 1.368381606628573,
      "longitude": 103.766687526556
    },
    "postal": "678117"
  },
  {
    "name": "ASSUMPTION PATHWAY SCHOOL",
    "school_type": "secondary",
    "address": "30 CASHEW ROAD SINGAPORE 679697",
    "coordinates": {
      "latitude": 1.369670704322713,
      "longitude": 103.7659591305809
    },
    "postal": "679697"
  },
  {
    "name": "BARTLEY SECONDARY SCHOOL",
    "school_type": "secondary",
    "address": "10 JALAN BUNGA RAMPAI SINGAPORE 538403",
    "coordinates": {
      "latitude": 1.339954155878111,
      "longitude": 103.8828062117046
    },
    "postal": "538403"
  },
  {
    "name": "BEATTY SECONDARY SCHOOL",
    "school_type": "secondary",
    "address": "1 TOA PAYOH NORTH SINGAPORE 318990",
    "coordinates": {
      "latitude": 1.341790284928019,
      "longitude": 103.8522808423451
    },
    "postal": "318990"
  },
  {
    "name": "BEDOK GREEN SECONDARY SCHOOL",
    "school_type": "secondary",
    "address": "360 BEDOK NORTH AVENUE 3 SINGAPORE 469722",
    "coordinates": {
      "latitude": 1.33451947288432,
      "longitude": 103.9350283833453
    },
    "postal": "469722"
  },
  {
    "name": "BEDOK SOUTH SECONDARY SCHOOL",
    "school_type": "secondary",
    "address": "1 JALAN LANGGAR BEDOK SINGAPORE 468585",
    "coordinates": {
      "latitude": 1.325136551591829,
      "longitude": 103.9509891392604
    },
    "postal": "468585"
  },
  {
    "name": "BEDOK VIEW SECONDARY SCHOOL",
    "school_type": "secondary",
    "address": "6 BEDOK SOUTH AVENUE 3 SINGAPORE 469293",
    "coordinates": {
      "latitude": 1.324157040296861,
      "longitude": 103.9437762450238
    },
    "postal": "469293"
  },
  {
    "name": "BENDEMEER SECONDARY SCHOOL",
    "school_type": "secondary",
    "address": "1 ST WILFRED ROAD SINGAPORE 327919",
    "coordinates": {
      "latitude": 1.324611113079975,
      "longitude": 103.8609702844009
    },
    "postal": "327919"
  },
  {
    "name": "BOON LAY SECONDARY SCHOOL",
    "school_type": "secondary",
    "address": "11 JURONG WEST STREET 65 SINGAPORE 648354",
    "coordinates": {
      "latitude": 1.34272216334335,
      "longitude": 103.7018914539119
    },
    "postal": "648354"
  },
  {
    "name": "BOWEN SECONDARY SCHOOL",
    "school_type": "secondary",
    "address": "2 LORONG NAPIRI SINGAPORE 547529",
    "coordinates": {
      "latitude": 1.3703599443621,
      "longitude": 103.877659577677
    },
    "postal": "547529"
  },
  {
    "name": "BROADRICK SECONDARY SCHOOL",
    "school_type": "secondary",
    "address": "61 DAKOTA CRESCENT SINGAPORE 399935",
    "coordinates": {
      "latitude": 1.307050611234331,
      "longitude": 103.886917922608
    },
    "postal": "399935"
  },
  {
    "name": "BUKIT BATOK SECONDARY SCHOOL",
    "school_type": "secondary",
    "address": "50 BUKIT BATOK WEST AVENUE 8 SINGAPORE 658962",
    "coordinates": {
      "latitude": 1.348491110790525,
      "longitude": 103.7408737048192
    },
    "postal": "658962"
  },
  {
    "name": "BUKIT MERAH SECONDARY SCHOOL",
    "school_type": "secondary",
    "address": "10 LENGKOK BAHRU SINGAPORE 159050",
    "coordinates": {
      "latitude": 1.285692830642895,
      "longitude": 103.8134389293932
    },
    "postal": "159050"
  },
  {
    "name": "BUKIT PANJANG GOVT. HIGH SCHOOL",
    "school_type": "secondary",
    "address": "7 CHOA CHU KANG AVENUE 4 SINGAPORE 689809",
    "coordinates": {
      "latitude": 1.382242433600432,
      "longitude": 103.7383612218687
    },
    "postal": "689809"
  },
  {
    "name": "BUKIT VIEW SECONDARY SCHOOL",
    "school_type": "secondary",
    "address": "16 BUKIT BATOK STREET 21 SINGAPORE 659633",
    "coordinates": {
      "latitude": 1.345733055429413,
      "longitude": 103.7522265939839
    },
    "postal": "659633"
  },
  {
    "name": "CANBERRA SECONDARY SCHOOL",
    "school_type": "secondary",
    "address": "51 SEMBAWANG DRIVE SINGAPORE 757699",
    "coordinates": {
      "latitude": 1.453190863159718,
      "longitude": 103.8142035838178
    },
    "postal": "757699"
  },
  {
    "name": "CATHOLIC HIGH SCHOOL",
    "school_type": "secondary",
    "address": "9 BISHAN STREET 22 SINGAPORE 579767",
    "coordinates": {
      "latitude": 1.354525170657562,
      "longitude": 103.8449008048039
    },
    "postal": "579767"
  },
  {
    "name": "CEDAR GIRLS' SECONDARY SCHOOL",
    "school_type": "secondary",
    "address": "1 CEDAR AVENUE SINGAPORE 349692",
    "coordinates": {
      "latitude": 1.333758002163343,
      "longitude": 103.8739330648855
    },
    "postal": "349692"
  },
  {
    "name": "CHANGKAT CHANGI SECONDARY SCHOOL",
    "school_type": "secondary",
    "address": "23 SIMEI STREET 3 SINGAPORE 529894",
    "coordinates": {
      "latitude": 1.339506300728762,
      "longitude": 103.9532455255639
    },
    "postal": "529894"
  },
  {
    "name": "CHIJ KATONG CONVENT",
    "school_type": "secondary",
    "address": "346 MARINE TERRACE SINGAPORE 449150",
    "coordinates": {
      "latitude": 1.306442680348951,
      "longitude": 103.9171443500279
    },
    "postal": "449150"
  },
  {
    "name": "CHIJ SECONDARY (TOA PAYOH)",
    "school_type": "secondary",
    "address": "626 LORONG 1 TOA PAYOH SINGAPORE 319764",
    "coordinates": {
      "latitude": 1.332460799483043,
      "longitude": 103.8432716250826
    },
    "postal": "319764"
  },
  {
    "name": "CHIJ ST. JOSEPH'S CONVENT",
    "school_type": "secondary",
    "address": "62 SENGKANG EAST WAY SINGAPORE 548595",
    "coordinates": {
      "latitude": 1.39175222260368,
      "longitude": 103.9024649915428
    },
    "postal": "548595"
  },
  {
    "name": "CHIJ ST. NICHOLAS GIRLS' SCHOOL",
    "school_type": "secondary",
    "address": "501 ANG MO KIO STREET 13 SINGAPORE 569405",
    "coordinates": {
      "latitude": 1.373476878789176,
      "longitude": 103.8342532694353
    },
    "postal": "569405"
  },
  {
    "name": "CHIJ ST. THERESA'S CONVENT",
    "school_type": "secondary",
    "address": "160 LOWER DELTA ROAD SINGAPORE 099138",
    "coordinates": {
      "latitude": 1.275351775100545,
      "longitude": 103.8224407016418
    },
    "postal": "099138"
  },
  {
    "name": "CHRIST CHURCH SECONDARY SCHOOL",
    "school_type": "secondary",
    "address": "20 WOODLANDS DRIVE 17 SINGAPORE 737924",
    "coordinates": {
      "latitude": 1.426567809014548,
      "longitude": 103.7934511052413
    },
    "postal": "737924"
  },
  {
    "name": "CHUA CHU KANG SECONDARY SCHOOL",
    "school_type": "secondary",
    "address": "31 TECK WHYE CRESCENT SINGAPORE 688848",
    "coordinates": {
      "latitude": 1.383334226370742,
      "longitude": 103.7551032758298
    },
    "postal": "688848"
  },
  {
    "name": "CHUNG CHENG HIGH SCHOOL (MAIN)",
    "school_type": "secondary",
    "address": "50 GOODMAN ROAD SINGAPORE 439012",
    "coordinates": {
      "latitude": 1.305091547530479,
      "longitude": 103.8916532293727
    },
    "postal": "439012"
  },
  {
    "name": "CHUNG CHENG HIGH SCHOOL (YISHUN)",
    "school_type": "secondary",
    "address": "11 YISHUN STREET 61 SINGAPORE 768547",
    "coordinates": {
      "latitude": 1.419226035861755,
      "longitude": 103.8373907828488
    },
    "postal": "768547"
  },
  {
    "name": "CLEMENTI TOWN SECONDARY SCHOOL",
    "school_type": "secondary",
    "address": "10 CLEMENTI AVENUE 3 SINGAPORE 129904",
    "coordinates": {
      "latitude": 1.315539129450737,
      "longitude": 103.7620205985233
    },
    "postal": "129904"
  },
  {
    "name": "COMMONWEALTH SECONDARY SCHOOL",
    "school_type": "secondary",
    "address": "698 WEST COAST ROAD SINGAPORE 608784",
    "coordinates": {
      "latitude": 1.319203959348025,
      "longitude": 103.745637393049
    },
    "postal": "608784"
  },
  {
    "name": "COMPASSVALE SECONDARY SCHOOL",
    "school_type": "secondary",
    "address": "51 COMPASSVALE CRESCENT SINGAPORE 545083",
    "coordinates": {
      "latitude": 1.396140839520089,
      "longitude": 103.899847164494
    },
    "postal": "545083"
  },
  {
    "name": "CRESCENT GIRLS' SCHOOL",
    "school_type": "secondary",
    "address": "357 TANGLIN ROAD SINGAPORE 247961",
    "coordinates": {
      "latitude": 1.293319470771038,
      "longitude": 103.8175444617547
    },
    "postal": "247961"
  },
  {
    "name": "CREST SECONDARY SCHOOL",
    "school_type": "secondary",
    "address": "561 JURONG EAST STREET 24 SINGAPORE 609561",
    "coordinates": {
      "latitude": 1.343119804507612,
      "longitude": 103.742628105304
    },
    "postal": "609561"
  },
  {
    "name": "DAMAI SECONDARY SCHOOL",
    "school_type": "secondary",
    "address": "4800 BEDOK RESERVOIR ROAD SINGAPORE 479229",
    "coordinates": {
      "latitude": 1.33692798510394,
      "longitude": 103.9270916534379
    },
    "postal": "479229"
  },
  {
    "name": "DEYI SECONDARY SCHOOL",
    "school_type": "secondary",
    "address": "1 ANG MO KIO STREET 42 SINGAPORE 569277",
    "coordinates": {
      "latitude": 1.365997025677177,
      "longitude": 103.8525457724221
    },
    "postal": "569277"
  },
  {
    "name": "DUNEARN SECONDARY SCHOOL",
    "school_type": "secondary",
    "address": "21 BUKIT BATOK WEST AVENUE 2 SINGAPORE 659204",
    "coordinates": {
      "latitude": 1.363579007928712,
      "longitude": 103.7447210910693
    },
    "postal": "659204"
  },
  {
    "name": "DUNMAN HIGH SCHOOL",
    "school_type": "secondary",
    "address": "10 TANJONG RHU ROAD SINGAPORE 436895",
    "coordinates": {
      "latitude": 1.299962160149622,
      "longitude": 103.8829415598902
    },
    "postal": "436895"
  },
  {
    "name": "DUNMAN SECONDARY SCHOOL",
    "school_type": "secondary",
    "address": "21 TAMPINES STREET 45 SINGAPORE 529093",
    "coordinates": {
      "latitude": 1.360652583370217,
      "longitude": 103.9562139069653
    },
    "postal": "529093"
  },
  {
    "name": "EAST SPRING SECONDARY SCHOOL",
    "school_type": "secondary",
    "address": "30 TAMPINES STREET 34 SINGAPORE 529231",
    "coordinates": {
      "latitude": 1.356225089925808,
      "longitude": 103.9606407002974
    },
    "postal": "529231"
  },
  {
    "name": "EDGEFIELD SECONDARY SCHOOL",
    "school_type": "secondary",
    "address": "36 PUNGGOL FIELD SINGAPORE 828814",
    "coordinates": {
      "latitude": 1.400593099818258,
      "longitude": 103.9026873854646
    },
    "postal": "828814"
  },
  {
    "name": "EVERGREEN SECONDARY SCHOOL",
    "school_type": "secondary",
    "address": "11 WOODLANDS STREET 83 SINGAPORE 738489",
    "coordinates": {
      "latitude": 1.441491312737382,
      "longitude": 103.794137756171
    },
    "postal": "738489"
  },
  {
    "name": "FAIRFIELD METHODIST SCHOOL (SECONDARY)",
    "school_type": "secondary",
    "address": "102 DOVER ROAD SINGAPORE 139649",
    "coordinates": {
      "latitude": 1.301633743958234,
      "longitude": 103.7840996471483
    },
    "postal": "139649"
  },
  {
    "name": "FUHUA SECONDARY SCHOOL",
    "school_type": "secondary",
    "address": "5 JURONG WEST STREET 41 SINGAPORE 649410",
    "coordinates": {
      "latitude": 1.347014089137569,
      "longitude": 103.7265208983193
    },
    "postal": "649410"
  },
  {
    "name": "GAN ENG SENG SCHOOL",
    "school_type": "secondary",
    "address": "1 HENDERSON ROAD SINGAPORE 159561",
    "coordinates": {
      "latitude": 1.285595164949621,
      "longitude": 103.8155474100632
    },
    "postal": "158901"
  },
  {
    "name": "GEYLANG METHODIST SCHOOL (SECONDARY)",
    "school_type": "secondary",
    "address": "2 GEYLANG EAST CENTRAL SINGAPORE 389705",
    "coordinates": {
      "latitude": 1.31764900474602,
      "longitude": 103.8826611293028
    },
    "postal": "389705"
  },
  {
    "name": "GREENDALE SECONDARY SCHOOL",
    "school_type": "secondary",
    "address": "51 EDGEDALE PLAINS SINGAPORE 828866",
    "coordinates": {
      "latitude": 1.396960199368946,
      "longitude": 103.9117001408394
    },
    "postal": "828866"
  },
  {
    "name": "GREENRIDGE SECONDARY SCHOOL",
    "school_type": "secondary",
    "address": "32 BUKIT PANJANG RING ROAD SINGAPORE 679938",
    "coordinates": {
      "latitude": 1.375600053443009,
      "longitude": 103.7639989140813
    },
    "postal": "678972"
  },
  {
    "name": "GUANGYANG SECONDARY SCHOOL",
    "school_type": "secondary",
    "address": "8 BISHAN STREET 12 SINGAPORE 579807",
    "coordinates": {
      "latitude": 1.344409435256954,
      "longitude": 103.8502121630782
    },
    "postal": "579807"
  },
  {
    "name": "HAI SING CATHOLIC SCHOOL",
    "school_type": "secondary",
    "address": "9 PASIR RIS DRIVE 6 SINGAPORE 519421",
    "coordinates": {
      "latitude": 1.369330556966364,
      "longitude": 103.9627629427641
    },
    "postal": "518969"
  },
  {
    "name": "HILLGROVE SECONDARY SCHOOL",
    "school_type": "secondary",
    "address": "10 BUKIT BATOK STREET 52 SINGAPORE 659250",
    "coordinates": {
      "latitude": 1.352735766159136,
      "longitude": 103.7529864883989
    },
    "postal": "659250"
  },
  {
    "name": "HOLY INNOCENTS' HIGH SCHOOL",
    "school_type": "secondary",
    "address": "1191 UPPER SERANGOON ROAD SINGAPORE 534786",
    "coordinates": {
      "latitude": 1.371545088222631,
      "longitude": 103.8963988142639
    },
    "postal": "534786"
  },
  {
    "name": "HOUGANG SECONDARY SCHOOL",
    "school_type": "secondary",
    "address": "2 HOUGANG STREET 93 SINGAPORE 534256",
    "coordinates": {
      "latitude": 1.377628795531905,
      "longitude": 103.8825391089642
    },
    "postal": "534256"
  },
  {
    "name": "HUA YI SECONDARY SCHOOL",
    "school_type": "secondary",
    "address": "60 JURONG WEST STREET 42 SINGAPORE 649371",
    "coordinates": {
      "latitude": 1.352343654883408,
      "longitude": 103.7218323201689
    },
    "postal": "649371"
  },
  {
    "name": "HWA CHONG INSTITUTION",
    "school_type": "secondary",
    "address": "661 BUKIT TIMAH ROAD SINGAPORE 269734",
    "coordinates": {
      "latitude": 1.324947792871904,
      "longitude": 103.8057043614718
    },
    "postal": "269734"
  },
  {
    "name": "JUNYUAN SECONDARY SCHOOL",
    "school_type": "secondary",
    "address": "11 TAMPINES STREET 84 SINGAPORE 528933",
    "coordinates": {
      "latitude": 1.353613152635378,
      "longitude": 103.9338861658239
    },
    "postal": "528933"
  },
  {
    "name": "JURONG SECONDARY SCHOOL",
    "school_type": "secondary",
    "address": "31 YUAN CHING ROAD SINGAPORE 618652",
    "coordinates": {
      "latitude": 1.33002032220943,
      "longitude": 103.7239529616472
    },
    "postal": "618652"
  },
  {
    "name": "JURONG WEST SECONDARY SCHOOL",
    "school_type": "secondary",
    "address": "61 JURONG WEST STREET 65 SINGAPORE 648348",
    "coordinates": {
      "latitude": 1.335256346883231,
      "longitude": 103.7020989044422
    },
    "postal": "648348"
  },
  {
    "name": "JURONGVILLE SECONDARY SCHOOL",
    "school_type": "secondary",
    "address": "202 JURONG EAST AVENUE 1 SINGAPORE 609790",
    "coordinates": {
      "latitude": 1.351288627702855,
      "longitude": 103.7289077100888
    },
    "postal": "609790"
  },
  {
    "name": "JUYING SECONDARY SCHOOL",
    "school_type": "secondary",
    "address": "33 JURONG WEST STREET 91 SINGAPORE 649038",
    "coordinates": {
      "latitude": 1.338722773413297,
      "longitude": 103.6873102645743
    },
    "postal": "649038"
  },
  {
    "name": "KENT RIDGE SECONDARY SCHOOL",
    "school_type": "secondary",
    "address": "147 WEST COAST ROAD SINGAPORE 127368",
    "coordinates": {
      "latitude": 1.301227734260989,
      "longitude": 103.7648896175657
    },
    "postal": "127368"
  },
  {
    "name": "KRANJI SECONDARY SCHOOL",
    "school_type": "secondary",
    "address": "61 CHOA CHU KANG STREET 51 SINGAPORE 689333",
    "coordinates": {
      "latitude": 1.390051098713108,
      "longitude": 103.7411906648444
    },
    "postal": "689333"
  },
  {
    "name": "KUO CHUAN PRESBYTERIAN SECONDARY SCHOOL",
    "school_type": "secondary",
    "address": "10 BISHAN STREET 13 SINGAPORE 579795",
    "coordinates": {
      "latitude": 1.350171299303138,
      "longitude": 103.8549837464155
    },
    "postal": "579795"
  },
  {
    "name": "LOYANG VIEW SECONDARY SCHOOL",
    "school_type": "secondary",
    "address": "12 PASIR RIS STREET 11 SINGAPORE 519073",
    "coordinates": {
      "latitude": 1.366584171672383,
      "longitude": 103.9569445857245
    },
    "postal": "519073"
  },
  {
    "name": "MANJUSRI SECONDARY SCHOOL",
    "school_type": "secondary",
    "address": "20 UBI AVENUE 1 SINGAPORE 408940",
    "coordinates": {
      "latitude": 1.32747123084847,
      "longitude": 103.9017199638308
    },
    "postal": "408940"
  },
  {
    "name": "MARIS STELLA HIGH SCHOOL",
    "school_type": "secondary",
    "address": "25 MOUNT VERNON ROAD SINGAPORE 368051",
    "coordinates": {
      "latitude": 1.341394733236683,
      "longitude": 103.8778524844351
    },
    "postal": "368051"
  },
  {
    "name": "MARSILING SECONDARY SCHOOL",
    "school_type": "secondary",
    "address": "12 MARSILING ROAD SINGAPORE 739110",
    "coordinates": {
      "latitude": 1.436644247699553,
      "longitude": 103.7760080904535
    },
    "postal": "739110"
  },
  {
    "name": "MAYFLOWER SECONDARY SCHOOL",
    "school_type": "secondary",
    "address": "2 ANG MO KIO STREET 21 SINGAPORE 569384",
    "coordinates": {
      "latitude": 1.368272662097225,
      "longitude": 103.8353607268625
    },
    "postal": "569384"
  },
  {
    "name": "MERIDIAN SECONDARY SCHOOL",
    "school_type": "secondary",
    "address": "31 PASIR RIS STREET 51 SINGAPORE 518901",
    "coordinates": {
      "latitude": 1.367246849201311,
      "longitude": 103.9489724836285
    },
    "postal": "518901"
  },
  {
    "name": "METHODIST GIRLS' SCHOOL (SECONDARY)",
    "school_type": "secondary",
    "address": "11 BLACKMORE DRIVE SINGAPORE 599986",
    "coordinates": {
      "latitude": 1.35096755912522,
      "longitude": 103.8851200505879
    },
    "postal": "536742"
  },
  {
    "name": "MONTFORT SECONDARY SCHOOL",
    "school_type": "secondary",
    "address": "50 HOUGANG AVENUE 8 SINGAPORE 538785",
    "coordinates": {
      "latitude": 1.373961316569128,
      "longitude": 103.8889283725771
    },
    "postal": "538785"
  },
  {
    "name": "NAN CHIAU HIGH SCHOOL",
    "school_type": "secondary",
    "address": "20 ANCHORVALE LINK SINGAPORE 545079",
    "coordinates": {
      "latitude": 1.388795824983993,
      "longitude": 103.8900044237636
    },
    "postal": "545079"
  },
  {
    "name": "NAN HUA HIGH SCHOOL",
    "school_type": "secondary",
    "address": "41 CLEMENTI AVENUE 1 SINGAPORE 129956",
    "coordinates": {
      "latitude": 1.308095295186052,
      "longitude": 103.7685614467247
    },
    "postal": "129956"
  },
  {
    "name": "NANYANG GIRLS' HIGH SCHOOL",
    "school_type": "secondary",
    "address": "2 LINDEN DRIVE SINGAPORE 288683",
    "coordinates": {
      "latitude": 1.330583266664794,
      "longitude": 103.8024209799424
    },
    "postal": "288683"
  },
  {
    "name": "NATIONAL JUNIOR COLLEGE",
    "school_type": "secondary",
    "address": "37 HILLCREST ROAD SINGAPORE 288913",
    "coordinates": {
      "latitude": 1.330292910721726,
      "longitude": 103.804110905425
    },
    "postal": "288913"
  },
  {
    "name": "NAVAL BASE SECONDARY SCHOOL",
    "school_type": "secondary",
    "address": "901 YISHUN RING ROAD SINGAPORE 768689",
    "coordinates": {
      "latitude": 1.419378816204425,
      "longitude": 103.8310503902469
    },
    "postal": "768689"
  },
  {
    "name": "NEW TOWN SECONDARY SCHOOL",
    "school_type": "secondary",
    "address": "1020 DOVER ROAD SINGAPORE 139657",
    "coordinates": {
      "latitude": 1.309775900113593,
      "longitude": 103.7731886342096
    },
    "postal": "139657"
  },
  {
    "name": "NGEE ANN SECONDARY SCHOOL",
    "school_type": "secondary",
    "address": "1 TAMPINES STREET 32 SINGAPORE 529283",
    "coordinates": {
      "latitude": 1.354475257558064,
      "longitude": 103.9567472624953
    },
    "postal": "529283"
  },
  {
    "name": "NORTH VISTA SECONDARY SCHOOL",
    "school_type": "secondary",
    "address": "11 RIVERVALE LINK SINGAPORE 545081",
    "coordinates": {
      "latitude": 1.381131285358019,
      "longitude": 103.8991888138857
    },
    "postal": "545081"
  },
  {
    "name": "NORTHBROOKS SECONDARY SCHOOL",
    "school_type": "secondary",
    "address": "585 YISHUN RING ROAD SINGAPORE 768692",
    "coordinates": {
      "latitude": 1.420812850206535,
      "longitude": 103.8451473325277
    },
    "postal": "768692"
  },
  {
    "name": "NORTHLAND SECONDARY SCHOOL",
    "school_type": "secondary",
    "address": "3 YISHUN STREET 22 SINGAPORE 768578",
    "coordinates": {
      "latitude": 1.435801833626377,
      "longitude": 103.8401046877841
    },
    "postal": "768578"
  },
  {
    "name": "NORTHLIGHT SCHOOL",
    "school_type": "secondary",
    "address": "151 TOWNER ROAD SINGAPORE 327830",
    "coordinates": {
      "latitude": 1.319100215816715,
      "longitude": 103.8557595535299
    },
    "postal": "327830"
  },
  {
    "name": "NUS HIGH SCHOOL OF MATHEMATICS AND SCIENCE",
    "school_type": "secondary",
    "address": "20 CLEMENTI AVENUE 1 SINGAPORE 129957",
    "coordinates": {
      "latitude": 1.306006780962482,
      "longitude": 103.7701528077369
    },
    "postal": "129957"
  },
  {
    "name": "ORCHID PARK SECONDARY SCHOOL",
    "school_type": "secondary",
    "address": "10 YISHUN STREET 81 SINGAPORE 768454",
    "coordinates": {
      "latitude": 1.415320327796348,
      "longitude": 103.8378592413427
    },
    "postal": "768454"
  },
  {
    "name": "OUTRAM SECONDARY SCHOOL",
    "school_type": "secondary",
    "address": "48 ANCHORVALE CRESCENT SINGAPORE 549936",
    "coordinates": {
      "latitude": 1.286513574647369,
      "longitude": 103.837127264403
    },
    "postal": "168622"
  },
  {
    "name": "PASIR RIS CREST SECONDARY SCHOOL",
    "school_type": "secondary",
    "address": "11 PASIR RIS STREET 41 SINGAPORE 518934",
    "coordinates": {
      "latitude": 1.372840601022477,
      "longitude": 103.9597282029184
    },
    "postal": "518934"
  },
  {
    "name": "PASIR RIS SECONDARY SCHOOL",
    "school_type": "secondary",
    "address": "390 TAMPINES STREET 21 SINGAPORE 529400",
    "coordinates": {
      "latitude": 1.354227326533977,
      "longitude": 103.9489626262035
    },
    "postal": "529400"
  },
  {
    "name": "PAYA LEBAR METHODIST GIRLS' SCHOOL (SECONDARY)",
    "school_type": "secondary",
    "address": "296 LOR AH SOO SINGAPORE 536742",
    "coordinates": {
      "latitude": 1.35096755912522,
      "longitude": 103.8851200505879
    },
    "postal": "536742"
  },
  {
    "name": "PEI HWA SECONDARY SCHOOL",
    "school_type": "secondary",
    "address": "21 FERNVALE LINK SINGAPORE 797702",
    "coordinates": {
      "latitude": 1.390375049932347,
      "longitude": 103.8784617453386
    },
    "postal": "797702"
  },
  {
    "name": "PEICAI SECONDARY SCHOOL",
    "school_type": "secondary",
    "address": "10 SERANGOON AVENUE 4 SINGAPORE 556094",
    "coordinates": {
      "latitude": 1.359515832222158,
      "longitude": 103.8700107490543
    },
    "postal": "556094"
  },
  {
    "name": "PEIRCE SECONDARY SCHOOL",
    "school_type": "secondary",
    "address": "10 SIN MING WALK SINGAPORE 575566",
    "coordinates": {
      "latitude": 1.366659446538121,
      "longitude": 103.83021606804
    },
    "postal": "575566"
  },
  {
    "name": "PRESBYTERIAN HIGH SCHOOL",
    "school_type": "secondary",
    "address": "5209 ANG MO KIO AVENUE 6 SINGAPORE 569845",
    "coordinates": {
      "latitude": 1.382011942502223,
      "longitude": 103.8431493828232
    },
    "postal": "569845"
  },
  {
    "name": "PUNGGOL SECONDARY SCHOOL",
    "school_type": "secondary",
    "address": "51 EDGEFIELD PLAINS SINGAPORE 828870",
    "coordinates": {
      "latitude": 1.402057384213998,
      "longitude": 103.9092137064815
    },
    "postal": "828870"
  },
  {
    "name": "QUEENSTOWN SECONDARY SCHOOL",
    "school_type": "secondary",
    "address": "1 STRATHMORE ROAD SINGAPORE 148800",
    "coordinates": {
      "latitude": 1.293521267746537,
      "longitude": 103.8131909800548
    },
    "postal": "148800"
  },
  {
    "name": "QUEENSWAY SECONDARY SCHOOL",
    "school_type": "secondary",
    "address": "2A MARGARET DRIVE SINGAPORE 149295",
    "coordinates": {
      "latitude": 1.300222715921892,
      "longitude": 103.8022072916252
    },
    "postal": "149295"
  },
  {
    "name": "RAFFLES GIRLS' SCHOOL (SECONDARY)",
    "school_type": "secondary",
    "address": "2 BRADDELL RISE SINGAPORE 318871",
    "coordinates": {
      "latitude": 1.342174799322947,
      "longitude": 103.8431340472698
    },
    "postal": "318871"
  },
  {
    "name": "RAFFLES INSTITUTION",
    "school_type": "secondary",
    "address": "1 RAFFLES INSTITUTION LANE SINGAPORE 575954",
    "coordinates": {
      "latitude": 1.293732071662947,
      "longitude": 103.8523176056685
    },
    "postal": "NIL"
  },
  {
    "name": "REGENT SECONDARY SCHOOL",
    "school_type": "secondary",
    "address": "50 CHOA CHU KANG NORTH 5 SINGAPORE 689621",
    "coordinates": {
      "latitude": 1.393279083356832,
      "longitude": 103.7510344115285
    },
    "postal": "689621"
  },
  {
    "name": "RIVER VALLEY HIGH SCHOOL",
    "school_type": "secondary",
    "address": "6 BOON LAY AVENUE SINGAPORE 649961",
    "coordinates": {
      "latitude": 1.344078011497243,
      "longitude": 103.7090221564361
    },
    "postal": "649961"
  },
  {
    "name": "RIVERSIDE SECONDARY SCHOOL",
    "school_type": "secondary",
    "address": "3 WOODLANDS STREET 81 SINGAPORE 738524",
    "coordinates": {
      "latitude": 1.441101571391271,
      "longitude": 103.7883082364092
    },
    "postal": "738524"
  },
  {
    "name": "SCHOOL OF SCIENCE AND TECHNOLOGY, SINGAPORE",
    "school_type": "secondary",
    "address": "1 TECHNOLOGY DRIVE SINGAPORE 138572",
    "coordinates": {
      "latitude": 1.312928106002766,
      "longitude": 103.7740115293219
    },
    "postal": "138572"
  },
  {
    "name": "SCHOOL OF THE ARTS, SINGAPORE",
    "school_type": "secondary",
    "address": "1 ZUBIR SAID DRIVE SINGAPORE 227968",
    "coordinates": {
      "latitude": null,
      "longitude": null
    },
    "postal": null
  },
  {
    "name": "SEMBAWANG SECONDARY SCHOOL",
    "school_type": "secondary",
    "address": "30 SEMBAWANG CRESCENT SINGAPORE 757704",
    "coordinates": {
      "latitude": 1.445315021313872,
      "longitude": 103.8168432581173
    },
    "postal": "757704"
  },
  {
    "name": "SENG KANG SECONDARY SCHOOL",
    "school_type": "secondary",
    "address": "10 COMPASSVALE LANE SINGAPORE 545090",
    "coordinates": {
      "latitude": 1.38659683143747,
      "longitude": 103.898365036709
    },
    "postal": "545090"
  },
  {
    "name": "SERANGOON GARDEN SECONDARY SCHOOL",
    "school_type": "secondary",
    "address": "21 SERANGOON NORTH AVENUE 1 SINGAPORE 555889",
    "coordinates": {
      "latitude": 1.369325704909471,
      "longitude": 103.8692703014753
    },
    "postal": "555889"
  },
  {
    "name": "SERANGOON SECONDARY SCHOOL",
    "school_type": "secondary",
    "address": "11 UPPER SERANGOON VIEW SINGAPORE 534237",
    "coordinates": {
      "latitude": 1.374655388274423,
      "longitude": 103.902138740699
    },
    "postal": "534237"
  },
  {
    "name": "SINGAPORE CHINESE GIRLS' SCHOOL",
    "school_type": "secondary",
    "address": "190 DUNEARN ROAD SINGAPORE 309437",
    "coordinates": {
      "latitude": 1.302399157197161,
      "longitude": 103.8390559049848
    },
    "postal": "NIL"
  },
  {
    "name": "SINGAPORE SPORTS SCHOOL",
    "school_type": "secondary",
    "address": "1 CHAMPIONS WAY SINGAPORE 737913",
    "coordinates": {
      "latitude": 1.426411405563434,
      "longitude": 103.7894447939508
    },
    "postal": "737913"
  },
  {
    "name": "SPECTRA SECONDARY SCHOOL",
    "school_type": "secondary",
    "address": "1 WOODLANDS DRIVE 64 SINGAPORE 737758",
    "coordinates": {
      "latitude": 1.4370375078996,
      "longitude": 103.8041004674866
    },
    "postal": "737758"
  },
  {
    "name": "SPRINGFIELD SECONDARY SCHOOL",
    "school_type": "secondary",
    "address": "30 TAMPINES AVENUE 8 SINGAPORE 529593",
    "coordinates": {
      "latitude": 1.349573034714754,
      "longitude": 103.9303544606924
    },
    "postal": "529593"
  },
  {
    "name": "ST ANDREW'S SCHOOL (SECONDARY)",
    "school_type": "secondary",
    "address": "15 FRANCIS THOMAS DRIVE SINGAPORE 359342",
    "coordinates": {
      "latitude": 1.330693609680754,
      "longitude": 103.8662491385613
    },
    "postal": "359342"
  },
  {
    "name": "ST. ANTHONY'S CANOSSIAN SECONDARY SCHOOL",
    "school_type": "secondary",
    "address": "1600 BEDOK NORTH AVENUE 4 SINGAPORE 469700",
    "coordinates": {
      "latitude": 1.334663134988562,
      "longitude": 103.9419771669314
    },
    "postal": "469700"
  },
  {
    "name": "ST. GABRIEL'S SECONDARY SCHOOL",
    "school_type": "secondary",
    "address": "24 SERANGOON AVENUE 1 SINGAPORE 556140",
    "coordinates": {
      "latitude": 1.346487987321781,
      "longitude": 103.876094163287
    },
    "postal": "556140"
  },
  {
    "name": "ST. HILDA'S SECONDARY SCHOOL",
    "school_type": "secondary",
    "address": "2 TAMPINES STREET 82 SINGAPORE 528986",
    "coordinates": {
      "latitude": 1.349739223853801,
      "longitude": 103.9376080321475
    },
    "postal": "528986"
  },
  {
    "name": "ST. JOSEPH'S INSTITUTION",
    "school_type": "secondary",
    "address": "38 MALCOLM ROAD SINGAPORE 308274",
    "coordinates": {
      "latitude": 1.297257598539885,
      "longitude": 103.8510235803884
    },
    "postal": "NIL"
  },
  {
    "name": "ST. MARGARET'S SCHOOL (SECONDARY)",
    "school_type": "secondary",
    "address": "111 FARRER ROAD SINGAPORE 259240",
    "coordinates": {
      "latitude": 1.320068213633615,
      "longitude": 103.8099511400599
    },
    "postal": "259240"
  },
  {
    "name": "ST. PATRICK'S SCHOOL",
    "school_type": "secondary",
    "address": "490 EAST COAST ROAD SINGAPORE 429058",
    "coordinates": {
      "latitude": 1.307883418718001,
      "longitude": 103.9176381937125
    },
    "postal": "429058"
  },
  {
    "name": "SWISS COTTAGE SECONDARY SCHOOL",
    "school_type": "secondary",
    "address": "3 BUKIT BATOK STREET 34 SINGAPORE 659322",
    "coordinates": {
      "latitude": 1.364717426974759,
      "longitude": 103.750396136688
    },
    "postal": "659322"
  },
  {
    "name": "TAMPINES SECONDARY SCHOOL",
    "school_type": "secondary",
    "address": "252 TAMPINES STREET 12 SINGAPORE 529427",
    "coordinates": {
      "latitude": 1.34926094811197,
      "longitude": 103.9442637095066
    },
    "postal": "529427"
  },
  {
    "name": "TANJONG KATONG GIRLS' SCHOOL",
    "school_type": "secondary",
    "address": "20 DUNMAN LANE SINGAPORE 439272",
    "coordinates": {
      "latitude": 1.308212746272852,
      "longitude": 103.8958200942289
    },
    "postal": "439272"
  },
  {
    "name": "TANJONG KATONG SECONDARY SCHOOL",
    "school_type": "secondary",
    "address": "130 HAIG ROAD SINGAPORE 438796",
    "coordinates": {
      "latitude": 1.308735159553417,
      "longitude": 103.8972251961986
    },
    "postal": "438796"
  },
  {
    "name": "TEMASEK JUNIOR COLLEGE",
    "school_type": "secondary",
    "address": "2 TAMPINES AVENUE 9 SINGAPORE 529564",
    "coordinates": {
      "latitude": 1.357280172558621,
      "longitude": 103.9561859363937
    },
    "postal": "529564"
  },
  {
    "name": "TEMASEK SECONDARY SCHOOL",
    "school_type": "secondary",
    "address": "600 UPPER EAST COAST ROAD SINGAPORE 465561",
    "coordinates": {
      "latitude": 1.315916731506153,
      "longitude": 103.9475641120216
    },
    "postal": "465561"
  },
  {
    "name": "UNITY SECONDARY SCHOOL",
    "school_type": "secondary",
    "address": "20 CHOA CHU KANG STREET 62 SINGAPORE 689143",
    "coordinates": {
      "latitude": 1.400015241194411,
      "longitude": 103.7460209148292
    },
    "postal": "689143"
  },
  {
    "name": "VICTORIA SCHOOL",
    "school_type": "secondary",
    "address": "2 SIGLAP LINK SINGAPORE 448880",
    "coordinates": {
      "latitude": 1.308713027075099,
      "longitude": 103.9279809666388
    },
    "postal": "448880"
  },
  {
    "name": "WEST SPRING SECONDARY SCHOOL",
    "school_type": "secondary",
    "address": "61 SENJA ROAD SINGAPORE 677737",
    "coordinates": {
      "latitude": null,
      "longitude": null
    },
    "postal": null
  },
  {
    "name": "WESTWOOD SECONDARY SCHOOL",
    "school_type": "secondary",
    "address": "11 JURONG WEST STREET 25 SINGAPORE 648350",
    "coordinates": {
      "latitude": 1.353736985109939,
      "longitude": 103.7017721021389
    },
    "postal": "648350"
  },
  {
    "name": "WHITLEY SECONDARY SCHOOL",
    "school_type": "secondary",
    "address": "30 BISHAN STREET 24 SINGAPORE 579747",
    "coordinates": {
      "latitude": 1.355052084806503,
      "longitude": 103.8425523781361
    },
    "postal": "579747"
  },
  {
    "name": "WOODGROVE SECONDARY SCHOOL",
    "school_type": "secondary",
    "address": "3 WOODLANDS AVENUE 6 SINGAPORE 738990",
    "coordinates": {
      "latitude": 1.428318281370131,
      "longitude": 103.7960475853894
    },
    "postal": "738990"
  },
  {
    "name": "WOODLANDS RING SECONDARY SCHOOL",
    "school_type": "secondary",
    "address": "21 WOODLANDS AVENUE 1 SINGAPORE 739062",
    "coordinates": {
      "latitude": 1.43070452883799,
      "longitude": 103.7776257485383
    },
    "postal": "739062"
  },
  {
    "name": "WOODLANDS SECONDARY SCHOOL",
    "school_type": "secondary",
    "address": "11 MARSILING ROAD SINGAPORE 739111",
    "coordinates": {
      "latitude": 1.439125281413568,
      "longitude": 103.774586410437
    },
    "postal": "739111"
  },
  {
    "name": "XINMIN SECONDARY SCHOOL",
    "school_type": "secondary",
    "address": "11 HOUGANG AVENUE 8 SINGAPORE 538789",
    "coordinates": {
      "latitude": 1.372558847000039,
      "longitude": 103.8830516138498
    },
    "postal": "538789"
  },
  {
    "name": "YIO CHU KANG SECONDARY SCHOOL",
    "school_type": "secondary",
    "address": "3063 ANG MO KIO AVENUE 5 SINGAPORE 569868",
    "coordinates": {
      "latitude": 1.377975977409265,
      "longitude": 103.8421369635195
    },
    "postal": "569868"
  },
  {
    "name": "YISHUN SECONDARY SCHOOL",
    "school_type": "secondary",
    "address": "4 YISHUN STREET 71 SINGAPORE 768516",
    "coordinates": {
      "latitude": 1.428133242760868,
      "longitude": 103.8287643166788
    },
    "postal": "768516"
  },
  {
    "name": "YISHUN TOWN SECONDARY SCHOOL",
    "school_type": "secondary",
    "address": "6 YISHUN STREET 21 SINGAPORE 768610",
    "coordinates": {
      "latitude": 1.432321567173857,
      "longitude": 103.8380942263609
    },
    "postal": "768610"
  },
  {
    "name": "YUAN CHING SECONDARY SCHOOL",
    "school_type": "secondary",
    "address": "103 YUAN CHING ROAD SINGAPORE 618654",
    "coordinates": {
      "latitude": 1.342006357644682,
      "longitude": 103.7208987043702
    },
    "postal": "618654"
  },
  {
    "name": "YUHUA SECONDARY SCHOOL",
    "school_type": "secondary",
    "address": "35 JURONG WEST STREET 41 SINGAPORE 649406",
    "coordinates": {
      "latitude": 1.347186268769677,
      "longitude": 103.7226872358383
    },
    "postal": "649406"
  },
  {
    "name": "YUSOF ISHAK SECONDARY SCHOOL",
    "school_type": "secondary",
    "address": "8 SUMANG WALK SINGAPORE 828676",
    "coordinates": {
      "latitude": 1.406937024581786,
      "longitude": 103.8962751495709
    },
    "postal": "828676"
  },
  {
    "name": "YUYING SECONDARY SCHOOL",
    "school_type": "secondary",
    "address": "47 HOUGANG AVENUE 1 SINGAPORE 538884",
    "coordinates": {
      "latitude": 1.35713595302468,
      "longitude": 103.8901947552866
    },
    "postal": "538884"
  },
  {
    "name": "ZHENGHUA SECONDARY SCHOOL",
    "school_type": "secondary",
    "address": "62 BUKIT PANJANG RING ROAD SINGAPORE 679962",
    "coordinates": {
      "latitude": 1.388365834153536,
      "longitude": 103.7655106385263
    },
    "postal": "679962"
  },
  {
    "name": "ZHONGHUA SECONDARY SCHOOL",
    "school_type": "secondary",
    "address": "13 SERANGOON AVENUE 3 SINGAPORE 556123",
    "coordinates": {
      "latitude": 1.348407208462093,
      "longitude": 103.869430481414
    },
    "postal": "556123"
  },
  {
    "name": "ANDERSON SERANGOON JUNIOR COLLEGE",
    "school_type": "post-secondary",
    "address": "4500 ANG MO KIO AVENUE 6 SINGAPORE 569843",
    "coordinates": {
      "latitude": 1.365043420024426,
      "longitude": 103.8870388093729
    },
    "postal": "534768"
  },
  {
    "name": "ANGLO-CHINESE JUNIOR COLLEGE",
    "school_type": "post-secondary",
    "address": "25 DOVER CLOSE EAST SINGAPORE 139745",
    "coordinates": {
      "latitude": 1.303042551933919,
      "longitude": 103.7853584364079
    },
    "postal": "139745"
  },
  {
    "name": "ANGLO-CHINESE SCHOOL (INDEPENDENT)",
    "school_type": "post-secondary",
    "address": "121 DOVER ROAD SINGAPORE 139650",
    "coordinates": {
      "latitude": 1.303704092577828,
      "longitude": 103.7803634176709
    },
    "postal": "139650"
  },
  {
    "name": "CATHOLIC JUNIOR COLLEGE",
    "school_type": "post-secondary",
    "address": "129 WHITLEY ROAD SINGAPORE 297822",
    "coordinates": {
      "latitude": 1.324556057832193,
      "longitude": 103.8350288423532
    },
    "postal": "297822"
  },
  {
    "name": "DUNMAN HIGH SCHOOL",
    "school_type": "post-secondary",
    "address": "10 TANJONG RHU ROAD SINGAPORE 436895",
    "coordinates": {
      "latitude": 1.299962160149622,
      "longitude": 103.8829415598902
    },
    "postal": "436895"
  },
  {
    "name": "EUNOIA JUNIOR COLLEGE",
    "school_type": "post-secondary",
    "address": "2 SIN MING PLACE SINGAPORE 573838",
    "coordinates": {
      "latitude": 1.362137571835474,
      "longitude": 103.8412861691214
    },
    "postal": "573838"
  },
  {
    "name": "HWA CHONG INSTITUTION",
    "school_type": "post-secondary",
    "address": "661 BUKIT TIMAH ROAD SINGAPORE 269734",
    "coordinates": {
      "latitude": 1.324947792871904,
      "longitude": 103.8057043614718
    },
    "postal": "269734"
  },
  {
    "name": "ITE COLLEGE CENTRAL",
    "school_type": "post-secondary",
    "address": "2 ANG MO KIO DRIVE SINGAPORE 567720",
    "coordinates": {
      "latitude": 1.377892048699013,
      "longitude": 103.8564119820287
    },
    "postal": "567720"
  },
  {
    "name": "ITE COLLEGE EAST",
    "school_type": "post-secondary",
    "address": "10 SIMEI AVENUE SINGAPORE 486047",
    "coordinates": {
      "latitude": 1.334386914252395,
      "longitude": 103.955050784776
    },
    "postal": "486047"
  },
  {
    "name": "ITE COLLEGE WEST",
    "school_type": "post-secondary",
    "address": "1 CHOA CHU KANG GROVE SINGAPORE 688236",
    "coordinates": {
      "latitude": 1.37527500765097,
      "longitude": 103.7524074814656
    },
    "postal": "688236"
  },
  {
    "name": "JURONG PIONEER JUNIOR COLLEGE",
    "school_type": "post-secondary",
    "address": "21 TECK WHYE WALK SINGAPORE 688258",
    "coordinates": {
      "latitude": 1.384374064107325,
      "longitude": 103.7543746151894
    },
    "postal": "688258"
  },
  {
    "name": "MILLENNIA INSTITUTE",
    "school_type": "post-secondary",
    "address": "60 BUKIT BATOK WEST AVENUE 8 SINGAPORE 658965",
    "coordinates": {
      "latitude": 1.350319392009867,
      "longitude": 103.7415935776833
    },
    "postal": "658965"
  },
  {
    "name": "NANYANG JUNIOR COLLEGE",
    "school_type": "post-secondary",
    "address": "128 SERANGOON AVENUE 3 SINGAPORE 556111",
    "coordinates": {
      "latitude": 1.35028314949236,
      "longitude": 103.8664987219115
    },
    "postal": "556111"
  },
  {
    "name": "NANYANG POLYTECHNIC",
    "school_type": "post-secondary",
    "address": "180 ANG MO KIO AVENUE 8 SINGAPORE 569830",
    "coordinates": {
      "latitude": 1.37781903108959,
      "longitude": 103.8484234454028
    },
    "postal": "569830"
  },
  {
    "name": "NATIONAL JUNIOR COLLEGE",
    "school_type": "post-secondary",
    "address": "37 HILLCREST ROAD SINGAPORE 288913",
    "coordinates": {
      "latitude": 1.330292910721726,
      "longitude": 103.804110905425
    },
    "postal": "288913"
  },
  {
    "name": "NGEE ANN POLYTECHNIC",
    "school_type": "post-secondary",
    "address": "535 CLEMENTI ROAD SINGAPORE 599489",
    "coordinates": {
      "latitude": 1.332480571799783,
      "longitude": 103.7733058805283
    },
    "postal": "599489"
  },
  {
    "name": "RAFFLES INSTITUTION",
    "school_type": "post-secondary",
    "address": "1 RAFFLES INSTITUTION LANE SINGAPORE 575954",
    "coordinates": {
      "latitude": 1.293732071662947,
      "longitude": 103.8523176056685
    },
    "postal": "NIL"
  },
  {
    "name": "REPUBLIC POLYTECHNIC",
    "school_type": "post-secondary",
    "address": "9 WOODLANDS AVENUE 9 SINGAPORE 738964",
    "coordinates": {
      "latitude": 1.444968165140488,
      "longitude": 103.785362406892
    },
    "postal": "737909"
  },
  {
    "name": "RIVER VALLEY HIGH SCHOOL",
    "school_type": "post-secondary",
    "address": "6 BOON LAY AVENUE SINGAPORE 649961",
    "coordinates": {
      "latitude": 1.344078011497243,
      "longitude": 103.7090221564361
    },
    "postal": "649961"
  },
  {
    "name": "SINGAPORE POLYTECHNIC",
    "school_type": "post-secondary",
    "address": "500 DOVER ROAD SINGAPORE 139651",
    "coordinates": {
      "latitude": 1.293921066256936,
      "longitude": 103.7631002650159
    },
    "postal": "126980"
  },
  {
    "name": "ST. ANDREW'S JUNIOR COLLEGE",
    "school_type": "post-secondary",
    "address": "5 SORBY ADAMS DRIVE SINGAPORE 357691",
    "coordinates": {
      "latitude": 1.333065157409554,
      "longitude": 103.8635763770552
    },
    "postal": "357691"
  },
  {
    "name": "ST. JOSEPH'S INSTITUTION",
    "school_type": "post-secondary",
    "address": "38 MALCOLM ROAD SINGAPORE 308274",
    "coordinates": {
      "latitude": 1.297257598539885,
      "longitude": 103.8510235803884
    },
    "postal": "NIL"
  },
  {
    "name": "TAMPINES MERIDIAN JUNIOR COLLEGE",
    "school_type": "post-secondary",
    "address": "21 PASIR RIS STREET 71 SINGAPORE 518799",
    "coordinates": {
      "latitude": 1.376333469096834,
      "longitude": 103.9369907234404
    },
    "postal": "518799"
  },
  {
    "name": "TEMASEK JUNIOR COLLEGE",
    "school_type": "post-secondary",
    "address": "22 BEDOK SOUTH ROAD SINGAPORE 469278",
    "coordinates": {
      "latitude": 1.357280172558621,
      "longitude": 103.9561859363937
    },
    "postal": "529564"
  },
  {
    "name": "TEMASEK POLYTECHNIC",
    "school_type": "post-secondary",
    "address": "21 TAMPINES AVENUE 1 SINGAPORE 529757",
    "coordinates": {
      "latitude": 1.343429662402032,
      "longitude": 103.9323543336982
    },
    "postal": "528694"
  },
  {
    "name": "VICTORIA JUNIOR COLLEGE",
    "school_type": "post-secondary",
    "address": "20 MARINE VISTA SINGAPORE 449035",
    "coordinates": {
      "latitude": 1.306701741774799,
      "longitude": 103.9199827041485
    },
    "postal": "449035"
  },
  {
    "name": "YISHUN INNOVA JUNIOR COLLEGE",
    "school_type": "post-secondary",
    "address": "3 YISHUN RING ROAD SINGAPORE 768675",
    "coordinates": {
      "latitude": 1.424266925723368,
      "longitude": 103.8300317114899
    },
    "postal": "768675"
  },
  {
    "name": "MOE KINDERGARTEN @ ALEXANDRA",
    "school_type": "moe-kindergarten",
    "address": "2A PRINCE CHARLES CRESCENT SINGAPORE 159016",
    "coordinates": {
      "latitude": 1.291169655704654,
      "longitude": 103.8240174036291
    },
    "postal": "NIL"
  },
  {
    "name": "MOE KINDERGARTEN @ ANCHOR GREEN",
    "school_type": "moe-kindergarten",
    "address": "31 ANCHORVALE DRIVE SINGAPORE 544969",
    "coordinates": {
      "latitude": 1.390508309546516,
      "longitude": 103.8874331629368
    },
    "postal": "NIL"
  },
  {
    "name": "MOE KINDERGARTEN @ ANG MO KIO",
    "school_type": "moe-kindergarten",
    "address": "20 ANG MO KIO AVENUE 3 SINGAPORE 569920",
    "coordinates": {
      "latitude": 1.368703633929743,
      "longitude": 103.839705325534
    },
    "postal": "NIL"
  },
  {
    "name": "MOE KINDERGARTEN @ ANGSANA",
    "school_type": "moe-kindergarten",
    "address": "51 TAMPINES STREET 61 SINGAPORE 528565",
    "coordinates": {
      "latitude": 1.363248189724602,
      "longitude": 103.9389148211668
    },
    "postal": "NIL"
  },
  {
    "name": "MOE KINDERGARTEN @ BENDEMEER",
    "school_type": "moe-kindergarten",
    "address": "91 BENDEMEER ROAD SINGAPORE 339948",
    "coordinates": {
      "latitude": 1.322544965948694,
      "longitude": 103.8647159665116
    },
    "postal": "NIL"
  },
  {
    "name": "MOE KINDERGARTEN @ CASUARINA",
    "school_type": "moe-kindergarten",
    "address": "30 PASIR RIS STREET 41 SINGAPORE 518935",
    "coordinates": {
      "latitude": null,
      "longitude": null
    },
    "postal": null
  },
  {
    "name": "MOE KINDERGARTEN @ CEDAR",
    "school_type": "moe-kindergarten",
    "address": "15 CEDAR AVENUE SINGAPORE 349700",
    "coordinates": {
      "latitude": 1.335316538237803,
      "longitude": 103.8755282721419
    },
    "postal": "NIL"
  },
  {
    "name": "MOE KINDERGARTEN @ DAZHONG",
    "school_type": "moe-kindergarten",
    "address": "35 BUKIT BATOK STREET 31 SINGAPORE 659441",
    "coordinates": {
      "latitude": 1.359403453279241,
      "longitude": 103.7482653937452
    },
    "postal": "NIL"
  },
  {
    "name": "MOE KINDERGARTEN @ ELIAS PARK",
    "school_type": "moe-kindergarten",
    "address": "11 PASIR RIS STREET 52 SINGAPORE 518866",
    "coordinates": {
      "latitude": null,
      "longitude": null
    },
    "postal": null
  },
  {
    "name": "MOE KINDERGARTEN @ FARRER PARK",
    "school_type": "moe-kindergarten",
    "address": "2 FARRER PARK ROAD SINGAPORE 217567",
    "coordinates": {
      "latitude": 1.311939502044744,
      "longitude": 103.8505445344326
    },
    "postal": "NIL"
  },
  {
    "name": "MOE KINDERGARTEN @ FENGSHAN",
    "school_type": "moe-kindergarten",
    "address": "307 BEDOK NORTH ROAD SINGAPORE 469680",
    "coordinates": {
      "latitude": 1.329701846549867,
      "longitude": 103.9320050693336
    },
    "postal": "NIL"
  },
  {
    "name": "MOE KINDERGARTEN @ FERN GREEN",
    "school_type": "moe-kindergarten",
    "address": "70 FERNVALE LINK SINGAPORE 797538",
    "coordinates": {
      "latitude": 1.397319882285874,
      "longitude": 103.8801372341543
    },
    "postal": "NIL"
  },
  {
    "name": "MOE KINDERGARTEN @ FERNVALE",
    "school_type": "moe-kindergarten",
    "address": "1 FERNVALE LANE SINGAPORE 797701",
    "coordinates": {
      "latitude": 1.389663083284763,
      "longitude": 103.8740885868234
    },
    "postal": "NIL"
  },
  {
    "name": "MOE KINDERGARTEN @ FIRST TOA PAYOH",
    "school_type": "moe-kindergarten",
    "address": "7 LORONG 8 TOA PAYOH SINGAPORE 319252",
    "coordinates": {
      "latitude": 1.340142741398286,
      "longitude": 103.8561755389325
    },
    "postal": "NIL"
  },
  {
    "name": "MOE KINDERGARTEN @ FRONTIER",
    "school_type": "moe-kindergarten",
    "address": "20 JURONG WEST STREET 61 SINGAPORE 648200",
    "coordinates": {
      "latitude": 1.337214006262559,
      "longitude": 103.699671124954
    },
    "postal": "NIL"
  },
  {
    "name": "MOE KINDERGARTEN @ GONGSHANG",
    "school_type": "moe-kindergarten",
    "address": "1 TAMPINES STREET 42 SINGAPORE 529176",
    "coordinates": {
      "latitude": 1.357075347377452,
      "longitude": 103.949237910522
    },
    "postal": "NIL"
  },
  {
    "name": "MOE KINDERGARTEN @ GREENDALE",
    "school_type": "moe-kindergarten",
    "address": "50 EDGEFIELD PLAINS SINGAPORE 828848",
    "coordinates": {
      "latitude": 1.396002118284234,
      "longitude": 103.9130204621334
    },
    "postal": "NIL"
  },
  {
    "name": "MOE KINDERGARTEN @ HORIZON",
    "school_type": "moe-kindergarten",
    "address": "61 EDGEDALE PLAINS SINGAPORE 828819",
    "coordinates": {
      "latitude": 1.399630051102345,
      "longitude": 103.913254844387
    },
    "postal": "NIL"
  },
  {
    "name": "MOE KINDERGARTEN @ HOUGANG",
    "school_type": "moe-kindergarten",
    "address": "1 HOUGANG STREET 93 SINGAPORE 534238",
    "coordinates": {
      "latitude": null,
      "longitude": null
    },
    "postal": null
  },
  {
    "name": "MOE KINDERGARTEN @ HUAMIN",
    "school_type": "moe-kindergarten",
    "address": "21 YISHUN AVENUE 11 SINGAPORE 768857",
    "coordinates": {
      "latitude": 1.427301330819704,
      "longitude": 103.8440911192717
    },
    "postal": "NIL"
  },
  {
    "name": "MOE KINDERGARTEN @ JING SHAN",
    "school_type": "moe-kindergarten",
    "address": "5 ANG MO KIO STREET 52 SINGAPORE 569228",
    "coordinates": {
      "latitude": 1.371584034482482,
      "longitude": 103.8517729887542
    },
    "postal": "NIL"
  },
  {
    "name": "MOE KINDERGARTEN @ JUNYUAN",
    "school_type": "moe-kindergarten",
    "address": "2 TAMPINES STREET 91 SINGAPORE 528906",
    "coordinates": {
      "latitude": 1.348052838884586,
      "longitude": 103.9390268089821
    },
    "postal": "NIL"
  },
  {
    "name": "MOE KINDERGARTEN @ JURONG WEST",
    "school_type": "moe-kindergarten",
    "address": "30 JURONG WEST STREET 61 SINGAPORE 648368",
    "coordinates": {
      "latitude": 1.339644436291447,
      "longitude": 103.6990240352446
    },
    "postal": "NIL"
  },